Time,Surface Speed (m/s),GForce (g),Acceleration (m/s^2),Thrust (kN),TWR,Mass (t),Pitch (deg),Heading (deg),Roll (deg),Angle of Attack (deg),Mach number,Altitude from Terrain (m),Altitude from the Sea (m),Downrange Distance (m),Latitude (deg),Longitude (deg),Apoapsis (m),Periapsis (m),Time to Apoapsis (s),Time to Periapsis (s),Inclination (deg),Orbital Velocity (m/s),Gravity (m/s^2),Target Distance (m),Target Speed (m/s),Stage DeltaV (m/s),Vessel DeltaV (m/s),Pressure (kPa),External Temperature (K),
1,79.28,8.84,76.96,26.04,,0.29,84.16,,-79.38,0,0.21,,139.2,4.03,28.60839,-80.5998,,,,,,,,,,,,99.72,293.16,
2,158.78,9.21,80.58,26.07,,0.28,83.68,,-52.46,0.01,0.44,,258.03,16.82,28.6084,-80.59993,,,,,,,,,,,,98.34,292.56,
3,241.63,9.52,83.68,26.12,,0.26,83.39,,-13.05,0.01,0.68,,457.54,39.56,28.6084,-80.60016,,,,,,,,,,,,96.06,291.51,
4,325.67,9.53,83.75,26.18,,0.25,83.21,,40.32,0.02,0.93,,740.14,72.88,28.60841,-80.6005,,,,,,,,,,,,92.89,316.5,
5,398.91,7.93,68.07,26.24,,0.24,83.03,,106.84,0.02,1.15,,1102.01,116.58,28.60842,-80.60095,,,,,,,,,,,,88.97,391.48,
6,470.01,8.54,74.04,26.3,,0.22,82.79,,178.1,0.02,1.36,,1533.09,170.12,28.60844,-80.6015,,,,,,,,,,,,84.47,461.72,
7,514.25,0.58,4.44,0,,0.21,82.59,,-107.46,0.02,1.54,,2033.29,234.3,28.60846,-80.60215,,,,,,,,,,,,79.5,518.87,
8.02,477.84,2.31,32.39,0,,0.17,82.43,,-69.11,0,1.43,,2533.58,300.06,28.60848,-80.60283,,,,,,,,,,,,74.76,481.35,
9.02,463.58,0.68,3.29,4.56,,0.17,82.27,,-50.11,0,1.39,,2996.61,362.25,28.6085,-80.60346,,,,,,,,,,,,70.6,463.89,
10.02,461.43,0.81,2.24,4.56,,0.16,82.1,,-40.41,0,1.39,,3454.69,425.13,28.60852,-80.60411,,,,,,,,,,,,66.68,461.61,
11.02,460.45,0.92,1.52,4.55,,0.16,81.93,,-35.28,0,1.39,,3911.05,489.16,28.60854,-80.60476,,,,,,,,,,,,62.96,460.5,
12.04,460.56,1.03,1.47,4.55,,0.16,81.75,,-32.44,0,1.4,,4375.91,555.85,28.60856,-80.60545,,,,,,,,,,,,59.34,460.5,
13.04,461.66,1.13,1.99,4.55,,0.16,81.56,,-30.89,0,1.41,,4832.06,622.75,28.60858,-80.60613,,,,,,,,,,,,55.97,461.5,
14.06,463.72,1.22,2.71,4.55,,0.16,81.38,,-29.98,0,1.42,,5298.73,692.71,28.60859,-80.60685,,,,,,,,,,,,52.68,463.45,
15.06,466.57,1.3,3.44,4.55,,0.15,81.19,,-29.47,0,1.44,,5758.46,763.17,28.60861,-80.60757,,,,,,,,,,,,49.6,466.22,
16.1,470.38,1.38,4.19,4.54,,0.15,80.99,,-29.15,0,1.46,,6239.75,838.57,28.60863,-80.60834,,,,,,,,,,,,46.54,469.94,
17.1,474.78,1.45,4.88,4.54,,0.15,80.8,,-28.96,0,1.48,,6706.36,913.29,28.60865,-80.60911,,,,,,,,,,,,43.72,474.26,
18.1,479.87,1.52,5.53,4.54,,0.15,80.61,,-28.85,0,1.5,,7177.41,990.33,28.60867,-80.60989,,,,,,,,,,,,41.01,479.28,
19.1,485.62,1.59,6.15,4.53,,0.15,80.41,,-28.79,0,1.53,,7653.55,1069.87,28.60869,-80.61071,,,,,,,,,,,,38.42,484.96,
20.1,491.96,1.65,6.73,4.53,,0.14,80.22,,-28.75,0,1.56,,8135.38,1152.04,28.60872,-80.61155,,,,,,,,,,,,35.93,491.24,
21.12,499.02,1.7,7.29,4.53,,0.14,80.01,,-28.72,0,1.59,,8633.29,1238.74,28.60874,-80.61244,,,,,,,,,,,,33.5,498.23,
22.12,506.49,1.76,7.82,4.52,,0.14,79.81,,-28.71,0,1.63,,9128.29,1326.71,28.60876,-80.61334,,,,,,,,,,,,31.22,505.64,
23.14,514.66,1.81,8.37,4.52,,0.14,79.61,,-28.7,0,1.67,,9640.73,1419.63,28.60878,-80.61429,,,,,,,,,,,,28.99,513.75,
24.14,523.23,1.87,8.92,4.52,,0.14,79.41,,-28.7,0,1.71,,10151.03,1514.02,28.60881,-80.61526,,,,,,,,,,,,26.91,522.26,
25.16,532.55,1.93,9.5,4.52,,0.13,79.2,,-28.71,0,1.75,,10680.15,1613.82,28.60883,-80.61628,,,,,,,,,,,,24.88,531.51,
26.16,542.28,1.99,10.09,4.51,,0.13,79,,-28.71,0,1.79,,11207.91,1715.29,28.60886,-80.61732,,,,,,,,,,,,22.99,541.18,
27.18,552.86,2.05,10.74,4.51,,0.13,78.8,,-28.71,0,1.84,,11756.02,1822.68,28.60888,-80.61842,,,,,,,,,,,,21.16,551.69,
28.18,563.91,2.12,11.42,4.51,,0.13,78.6,,-28.72,0,1.89,,12303.62,1931.97,28.60891,-80.61954,,,,,,,,,,,,19.45,562.66,
29.18,575.68,2.2,12.17,4.51,,0.13,78.4,,-28.72,0,1.94,,12862.01,2045.44,28.60894,-80.6207,,,,,,,,,,,,17.84,574.35,
30.2,588.52,2.28,13,4.51,,0.12,78.19,,-28.73,0,2,,13443.45,2165.72,28.60896,-80.62193,,,,,,,,,,,,16.28,587.09,
31.2,601.98,2.37,13.88,4.51,,0.12,77.99,,-28.73,0,2.05,,14025.94,2288.32,28.60899,-80.62319,,,,,,,,,,,,14.85,600.46,
32.2,616.35,2.47,14.8,4.51,,0.12,77.8,,-28.73,0,2.11,,14621.61,2415.84,28.60902,-80.62449,,,,,,,,,,,,13.5,614.79,
33.2,631.67,2.56,15.75,4.5,,0.12,77.6,,-28.74,0,2.18,,15231.36,2548.53,28.60905,-80.62585,,,,,,,,,,,,12.23,630.16,
34.22,648.3,2.66,16.76,4.5,,0.12,77.4,,-28.74,0,2.24,,15868.74,2689.51,28.60909,-80.62729,,,,,,,,,,,,11.03,647.03,
35.22,665.66,2.77,17.8,4.5,,0.11,77.21,,-28.74,0,2.31,,16509.74,2833.56,28.60912,-80.62877,,,,,,,,,,,,9.93,664.84,
36.24,684.47,2.88,18.92,4.5,,0.11,77.02,,-28.74,0,2.37,,17181.05,2986.76,28.60916,-80.63034,,,,,,,,,,,,8.9,684.44,
37.24,704.05,3,20.05,4.5,,0.11,76.83,,-28.74,0,2.44,,17857.4,3143.45,28.60919,-80.63194,,,,,,,,,,,,7.96,705.18,
38.24,724.79,3.12,21.22,4.5,,0.11,76.65,,-28.74,0,2.5,,18552.86,3306.92,28.60923,-80.63362,,,,,,,,,,,,7.11,727.55,
39.26,747.18,3.24,22.44,4.5,,0.11,76.46,,-28.74,0,2.57,,19283.1,3481.01,28.60927,-80.6354,,,,,,,,,,,,6.32,752.2,
40.28,770.83,3.37,23.69,4.5,,0.1,76.28,,-28.73,0,2.64,,20035.6,3662.93,28.60931,-80.63726,,,,,,,,,,,,5.6,778.88,
41.3,795.78,3.5,24.96,4.5,,0.1,76.1,,-28.73,0,2.71,,20811.6,3853.08,28.60935,-80.63921,,,,,,,,,,,,4.94,807.85,
42.32,822.04,3.63,26.25,4.5,,0.1,75.93,,-28.73,0,2.79,,21612.37,4051.88,28.6094,-80.64125,,,,,,,,,,,,4.35,839.4,
43.34,849.64,3.76,27.57,4.5,,0.1,75.76,,-28.72,0,2.87,,22439.17,4259.76,28.60945,-80.64338,,,,,,,,,,,,3.82,873.89,
44.34,878.02,3.9,28.88,4.5,,0.1,75.59,,-28.72,0,2.95,,23276.3,4472.81,28.60949,-80.64556,,,,,,,,,,,,3.35,910.92,
45.34,907.74,4.03,30.23,4.5,,0.09,75.43,,-28.71,0,3.04,,24140.96,4695.45,28.60954,-80.64784,,,,,,,,,,,,2.93,951.53,
46.34,938.83,4.17,31.61,4.5,,0.09,75.28,,-28.71,0,3.13,,25034.41,4928.1,28.6096,-80.65022,,,,,,,,,,,,2.56,996.16,
47.36,971.99,4.32,33.05,4.5,,0.09,75.12,,-28.7,0,3.23,,25976.77,5176.19,28.60965,-80.65276,,,,,,,,,,,,2.21,1046.33,
48.36,1005.96,4.47,34.51,4.5,,0.09,74.97,,-28.7,0,3.33,,26932.44,5430.48,28.60971,-80.65536,,,,,,,,,,,,1.91,1100.61,
49.38,1042.15,4.62,36.04,4.5,,0.09,74.82,,-28.69,0,3.44,,27941.1,5701.63,28.60977,-80.65814,,,,,,,,,,,,1.65,1161.73,
50.38,1060.43,0,9.74,0,,0.08,74.68,,-28.69,0,3.5,,28961.2,5978.58,28.60983,-80.66098,,,,,,,,,,,,1.41,1202.53,
51.38,1046.47,0.45,13.97,0,,0.08,74.53,,-28.68,0,3.44,,29976.63,6256.94,28.60989,-80.66383,,,,,,,,,,,,1.22,1171.78,
52.4,1033,0.37,13.26,0,,0.08,74.38,,-28.68,0,3.38,,30998.18,6539.74,28.60996,-80.66672,,,,,,,,,,,,1.05,1143.31,
53.4,1020.43,0.31,12.69,0,,0.08,74.23,,-28.67,0,3.32,,31986.44,6816.09,28.61002,-80.66955,,,,,,,,,,,,0.91,1117.86,
54.4,1008.37,0.26,12.21,0,,0.08,74.08,,-28.66,0,3.27,,32962.12,7091.67,28.61008,-80.67238,,,,,,,,,,,,0.79,1094.46,
55.4,996.76,0.22,11.82,0,,0.08,73.92,,-28.66,0,3.21,,33925.69,7366.6,28.61014,-80.67519,,,,,,,,,,,,0.69,1072.79,
56.42,985.29,0.19,11.48,0,,0.08,73.76,,-28.65,0,3.16,,34896.43,7646.47,28.6102,-80.67806,,,,,,,,,,,,0.6,1052.18,
57.44,974.15,0.16,11.19,0,,0.08,73.59,,-28.65,0,3.11,,35855.29,7925.87,28.61026,-80.68092,,,,,,,,,,,,0.52,1032.9,
58.44,963.49,0.13,10.95,0,,0.08,73.42,,-28.64,0,3.07,,36784.1,8199.4,28.61032,-80.68372,,,,,,,,,,,,0.46,1015.12,
59.44,953.06,0.11,10.75,0,,0.08,73.25,,-28.63,0,3.02,,37702,8472.61,28.61038,-80.68652,,,,,,,,,,,,0.41,998.33,
60.46,942.62,0.09,10.58,0,,0.08,73.07,,-28.63,0,2.97,,38627.21,8751.01,28.61044,-80.68937,,,,,,,,,,,,0.36,982.11,
61.46,932.55,0.08,10.43,0,,0.08,72.9,,-28.62,0,2.93,,39523.62,9023.73,28.6105,-80.69216,,,,,,,,,,,,0.32,966.99,
62.48,922.43,0.07,10.3,0,,0.08,72.71,,-28.61,0,2.88,,40427.24,9301.72,28.61057,-80.69501,,,,,,,,,,,,0.28,952.28,
63.5,912.44,0.05,10.19,0,,0.08,72.52,,-28.61,0,2.84,,41320.16,9579.55,28.61063,-80.69785,,,,,,,,,,,,0.25,938.23,
64.52,902.56,0.05,10.11,0,,0.08,72.33,,-28.6,0,2.8,,42202.48,9857.26,28.61069,-80.7007,,,,,,,,,,,,0.22,924.76,
65.54,892.75,0.04,10.06,0,,0.08,72.13,,-28.6,0,2.76,,43074.29,10134.87,28.61075,-80.70354,,,,,,,,,,,,0.2,911.81,
66.54,883.2,0.04,10.02,0,,0.08,71.94,,-28.59,0,2.72,,43918.85,10406.95,28.61081,-80.70633,,,,,,,,,,,,0.18,899.56,
67.54,873.69,0.03,9.98,0,,0.08,71.73,,-28.58,0,2.68,,44753.4,10678.95,28.61087,-80.70911,,,,,,,,,,,,0.16,887.72,
68.56,864.04,0.03,9.95,0,,0.08,71.53,,-28.58,0,2.64,,45594.35,10956.34,28.61093,-80.71195,,,,,,,,,,,,0.14,876.03,
69.56,854.62,0.03,9.92,0,,0.08,71.32,,-28.57,0,2.61,,46408.77,11228.22,28.61099,-80.71474,,,,,,,,,,,,0.13,864.9,
70.58,845.05,0.02,9.89,0,,0.08,71.1,,-28.56,0,2.57,,47229.26,11505.5,28.61105,-80.71758,,,,,,,,,,,,0.12,853.85,
71.58,835.71,0.02,9.87,0,,0.08,70.88,,-28.56,0,2.54,,48023.68,11777.3,28.61111,-80.72036,,,,,,,,,,,,0.11,843.27,
72.58,826.41,0.02,9.84,0,,0.08,70.65,,-28.55,0,2.51,,48808.23,12049.06,28.61117,-80.72315,,,,,,,,,,,,0.1,832.93,
73.58,817.13,0.02,9.83,0,,0.08,70.43,,-28.55,0,2.48,,49582.93,12320.8,28.61123,-80.72593,,,,,,,,,,,,0.09,822.78,
74.6,807.71,0.02,9.81,0,,0.08,70.19,,-28.54,0.01,2.46,,50363,12597.94,28.61129,-80.72877,,,,,,,,,,,,0.08,812.61,
75.6,798.49,0.01,9.79,0,,0.08,69.95,,-28.53,0.01,2.43,,51117.86,12869.63,28.61135,-80.73155,,,,,,,,,,,,0.07,802.78,
76.62,789.13,0.01,9.78,0,,0.08,69.7,,-28.53,0.01,2.41,,51877.74,13146.73,28.61141,-80.73439,,,,,,,,,,,,0.07,792.89,
77.64,779.79,0.01,9.77,0,,0.08,69.45,,-28.52,0.01,2.38,,52627.43,13423.82,28.61147,-80.73722,,,,,,,,,,,,0.06,783.11,
78.64,770.66,0.01,9.75,0,,0.08,69.19,,-28.52,0.01,2.36,,53352.56,13695.46,28.61153,-80.74001,,,,,,,,,,,,0.05,773.61,
79.64,761.56,0.01,9.74,0,,0.08,68.93,,-28.51,0.01,2.34,,54067.92,13967.09,28.61159,-80.74279,,,,,,,,,,,,0.05,764.19,
80.64,752.49,0.01,9.73,0,,0.08,68.66,,-28.5,0.01,2.32,,54773.54,14238.72,28.61165,-80.74557,,,,,,,,,,,,0.05,754.84,
81.64,743.44,0.01,9.73,0,,0.08,68.39,,-28.49,0.01,2.3,,55469.42,14510.34,28.61171,-80.74835,,,,,,,,,,,,0.04,745.54,
82.64,734.42,0.01,9.72,0,,0.08,68.11,,-28.49,0.01,2.28,,56155.58,14781.95,28.61177,-80.75113,,,,,,,,,,,,0.04,736.31,
83.64,725.42,0.01,9.71,0,,0.08,67.82,,-28.48,0.02,2.26,,56832,15053.57,28.61182,-80.75391,,,,,,,,,,,,0.03,727.13,
84.66,716.27,0.01,9.7,0,,0.08,67.52,,-28.48,0.02,2.24,,57511.95,15330.62,28.61188,-80.75675,,,,,,,,,,,,0.03,717.83,
85.66,707.32,0.01,9.7,0,,0.08,67.22,,-28.47,0.02,2.22,,58168.77,15602.23,28.61194,-80.75953,,,,,,,,,,,,0.03,708.75,
86.66,698.41,0.01,9.69,0,,0.08,66.92,,-28.46,0.02,2.2,,58815.88,15873.85,28.612,-80.76232,,,,,,,,,,,,0.03,699.72,
87.66,689.51,0.01,9.68,0,,0.08,66.6,,-28.46,0.03,2.18,,59453.3,16145.46,28.61206,-80.7651,,,,,,,,,,,,0.02,690.74,
88.68,680.47,0.01,9.68,0,,0.08,66.27,,-28.45,0.03,2.16,,60093.48,16422.52,28.61212,-80.76793,,,,,,,,,,,,0.02,681.62,
89.68,671.64,0.01,9.67,0,,0.08,65.94,,-28.45,0.03,2.14,,60711.33,16694.15,28.61218,-80.77072,,,,,,,,,,,,0.02,672.73,
90.7,662.65,0,9.67,0,,0.08,65.6,,-28.44,0.04,2.12,,61331.57,16971.21,28.61224,-80.77355,,,,,,,,,,,,0.02,663.7,
91.7,653.88,0,9.66,0,,0.08,65.25,,-28.43,0.04,2.1,,61929.88,17242.85,28.6123,-80.77634,,,,,,,,,,,,0.02,654.89,
92.72,644.95,0,9.66,0,,0.08,64.88,,-28.43,0.05,2.08,,62530.19,17519.93,28.61236,-80.77917,,,,,,,,,,,,0.02,645.94,
93.74,636.06,0,9.65,0,,0.08,64.51,,-28.42,0.05,2.06,,63120.45,17797.01,28.61242,-80.78201,,,,,,,,,,,,0.01,637.03,
94.76,627.2,0,9.65,0,,0.08,64.13,,-28.41,0.06,2.04,,63700.66,18074.1,28.61248,-80.78485,,,,,,,,,,,,0.01,628.16,
95.76,618.55,0,9.65,0,,0.08,63.74,,-28.41,0.07,2.02,,64259.75,18345.77,28.61254,-80.78763,,,,,,,,,,,,0.01,619.5,
96.78,609.76,0,9.64,0,,0.08,63.34,,-28.4,0.08,2,,64820.07,18622.88,28.6126,-80.79047,,,,,,,,,,,,0.01,610.71,
97.8,601.01,0,9.64,0,,0.08,62.93,,-28.39,0.09,1.98,,65370.35,18899.99,28.61266,-80.79331,,,,,,,,,,,,0.01,601.95,
98.82,592.29,0,9.64,0,,0.08,62.5,,-28.39,0.1,1.96,,65910.6,19177.12,28.61272,-80.79615,,,,,,,,,,,,0.01,593.23,
99.82,583.78,0,9.63,0,,0.08,62.08,,-28.38,0.11,1.93,,66430.52,19448.82,28.61278,-80.79893,,,,,,,,,,,,0.01,584.72,
100.82,575.31,0,9.63,0,,0.08,61.64,,-28.38,0.13,1.91,,66940.8,19720.53,28.61283,-80.80171,,,,,,,,,,,,0.01,576.24,
101.84,566.71,0,9.63,0,,0.08,61.18,,-28.37,0.14,1.89,,67451.37,19997.69,28.61289,-80.80455,,,,,,,,,,,,0.01,567.64,
102.84,558.32,0,9.62,0,,0.08,60.72,,-28.36,0.16,1.87,,67942.19,20269.42,28.61295,-80.80733,,,,,,,,,,,,0.01,559.24,
103.86,549.81,0,9.62,0,,0.08,60.24,,-28.36,0.18,1.85,,68432.91,20546.59,28.61301,-80.81017,,,,,,,,,,,,0.01,550.72,
104.86,541.5,0,9.62,0,,0.08,59.75,,-28.35,0.2,1.83,,68904.29,20818.34,28.61307,-80.81295,,,,,,,,,,,,0.01,542.42,
105.88,533.08,0,9.62,0,,0.08,59.24,,-28.34,0.23,1.8,,69375.18,21095.53,28.61313,-80.81579,,,,,,,,,,,,0.01,533.99,
106.88,524.88,0,9.61,0,,0.08,58.73,,-28.34,0.26,1.78,,69827.12,21367.3,28.61319,-80.81858,,,,,,,,,,,,0.01,525.78,
107.88,516.72,0,9.61,0,,0.08,58.2,,-28.33,0.29,1.76,,70269.43,21639.08,28.61325,-80.82136,,,,,,,,,,,,0.01,517.62,
108.88,508.62,0,9.61,0,,0.08,57.67,,-28.32,0.32,1.74,,70702.14,21910.86,28.6133,-80.82414,,,,,,,,,,,,0,509.51,
109.88,500.57,0,9.61,0,,0.08,57.11,,-28.32,0.36,1.71,,71125.23,22182.66,28.61336,-80.82693,,,,,,,,,,,,0,501.46,
110.9,492.42,0,9.6,0,,0.08,56.53,,-28.31,0.41,1.69,,71546.87,22459.9,28.61342,-80.82977,,,,,,,,,,,,0,493.3,
111.9,484.5,0,9.6,0,,0.08,55.95,,-28.31,0.45,1.67,,71950.55,22731.71,28.61348,-80.83255,,,,,,,,,,,,0,485.37,
112.9,476.63,0,9.6,0,,0.08,55.35,,-28.3,0.5,1.64,,72344.61,23003.54,28.61354,-80.83533,,,,,,,,,,,,0,477.49,
113.9,468.83,0,9.6,0,,0.08,54.74,,-28.29,0.56,1.62,,72729.07,23275.37,28.6136,-80.83812,,,,,,,,,,,,0,469.69,
114.92,460.95,0,9.6,0,,0.08,54.09,,-28.29,0.63,1.6,,73111.32,23552.65,28.61366,-80.84096,,,,,,,,,,,,0,461.8,
115.92,453.29,0,9.59,0,,0.08,53.44,,-28.28,0.7,1.57,,73476.38,23824.5,28.61372,-80.84374,,,,,,,,,,,,0,454.13,
116.92,445.72,0,9.59,0,,0.08,52.78,,-28.27,0.77,1.55,,73831.84,24096.36,28.61377,-80.84653,,,,,,,,,,,,0,446.55,
117.94,438.07,0,9.59,0,,0.08,52.09,,-28.27,0.86,1.53,,74184.52,24373.67,28.61383,-80.84937,,,,,,,,,,,,0,438.89,
118.94,430.66,0,9.59,0,,0.08,51.39,,-28.26,0.95,1.5,,74520.59,24645.55,28.61389,-80.85215,,,,,,,,,,,,0,431.47,
119.94,423.33,0,9.59,0,,0.08,50.67,,-28.25,1.05,1.48,,74847.07,24917.43,28.61395,-80.85493,,,,,,,,,,,,0,424.13,
120.94,416.1,0,9.59,0,,0.08,49.93,,-28.25,1.16,1.46,,75163.95,25189.33,28.61401,-80.85772,,,,,,,,,,,,0,416.89,
121.96,408.83,0,9.59,0,,0.08,49.16,,-28.24,1.28,1.43,,75477.29,25466.67,28.61407,-80.86056,,,,,,,,,,,,0,409.61,
122.96,401.8,0,9.58,0,,0.08,48.39,,-28.24,1.41,1.41,,75774.79,25738.59,28.61412,-80.86334,,,,,,,,,,,,0,402.57,
123.96,394.88,0,9.58,0,,0.08,47.59,,-28.23,1.56,1.39,,76062.71,26010.51,28.61418,-80.86613,,,,,,,,,,,,0,395.64,
124.98,387.94,0,9.58,0,,0.08,46.76,,-28.22,1.71,1.36,,76346.5,26287.88,28.61424,-80.86897,,,,,,,,,,,,0,388.68,
126,381.12,0,9.58,0,,0.08,45.91,,-28.22,1.88,1.34,,76620.32,26565.25,28.6143,-80.87181,,,,,,,,,,,,0,381.85,
127,374.57,0,9.58,0,,0.08,45.05,,-28.21,2.06,1.32,,76879.09,26837.2,28.61436,-80.8746,,,,,,,,,,,,0,375.28,
128,368.15,0,9.58,0,,0.08,44.17,,-28.21,2.26,1.3,,77128.27,27109.15,28.61442,-80.87738,,,,,,,,,,,,0,368.85,
129,361.87,0,9.58,0,,0.08,43.27,,-28.2,2.46,1.28,,77367.87,27381.11,28.61447,-80.88017,,,,,,,,,,,,0,362.55,
130,355.73,0,9.58,0,,0.08,42.35,,-28.19,2.69,1.26,,77597.89,27653.07,28.61453,-80.88295,,,,,,,,,,,,0,356.4,
131,349.76,0,9.58,0,,0.08,41.4,,-28.19,2.92,1.24,,77818.32,27925.05,28.61459,-80.88574,,,,,,,,,,,,0,350.41,
132.02,343.82,0,9.57,0,,0.08,40.41,,-28.18,3.18,1.22,,78033.28,28202.46,28.61465,-80.88858,,,,,,,,,,,,0,344.46,
133.02,338.18,0,9.57,0,,0.08,39.42,,-28.18,3.46,1.2,,78234.36,28474.45,28.61471,-80.89136,,,,,,,,,,,,0,338.8,
134.02,332.72,0,9.57,0,,0.08,38.4,,-28.17,3.74,1.18,,78425.86,28746.43,28.61476,-80.89415,,,,,,,,,,,,0,333.31,
135.02,327.45,0,9.57,0,,0.08,37.36,,-28.16,4.05,1.16,,78607.77,29018.43,28.61482,-80.89693,,,,,,,,,,,,0,328.02,
136.02,322.38,0,9.57,0,,0.08,36.29,,-28.16,4.37,1.14,,78780.11,29290.43,28.61488,-80.89972,,,,,,,,,,,,0,322.93,
137.02,317.51,0,9.57,0,,0.08,35.19,,-28.15,4.7,1.13,,78942.87,29562.43,28.61494,-80.90251,,,,,,,,,,,,0,318.04,
138.02,312.86,0,9.57,0,,0.08,34.07,,-28.15,5.06,1.11,,79096.05,29834.43,28.615,-80.90529,,,,,,,,,,,,0,313.36,
139.04,308.35,0,9.57,0,,0.08,32.89,,-28.14,5.43,1.09,,79242.42,30111.88,28.61505,-80.90813,,,,,,,,,,,,0,308.83,
140.06,304.09,0,9.57,0,,0.08,31.69,,-28.13,5.82,1.08,,79378.83,30389.34,28.61511,-80.91098,,,,,,,,,,,,0,304.54,
141.08,300.09,0,9.57,0,,0.08,30.46,,-28.13,6.23,1.07,,79505.28,30666.79,28.61517,-80.91382,,,,,,,,,,,,0,300.51,
142.08,296.42,0,9.57,0,,0.08,29.22,,-28.12,6.64,1.05,,79619.58,30938.81,28.61523,-80.9166,,,,,,,,,,,,0,296.81,
143.08,293.02,0,9.57,0,,0.08,27.95,,-28.12,7.06,1.04,,79724.3,31210.82,28.61529,-80.91939,,,,,,,,,,,,0,293.38,
144.08,289.89,0,9.57,0,,0.08,26.65,,-28.11,7.48,1.03,,79819.45,31482.84,28.61535,-80.92217,,,,,,,,,,,,0,290.22,
145.08,287.05,0,9.57,0,,0.08,25.32,,-28.11,7.91,1.02,,79905.03,31754.86,28.6154,-80.92496,,,,,,,,,,,,0,287.35,
146.08,284.51,0,9.57,0,,0.08,23.95,,-28.1,8.35,1.01,,79981.02,32026.88,28.61546,-80.92775,,,,,,,,,,,,0,284.77,
147.08,282.26,0,9.57,0,,0.08,22.56,,-28.09,8.78,1,,80047.45,32298.9,28.61552,-80.93053,,,,,,,,,,,,0,282.49,
148.08,280.33,0,9.57,0,,0.08,21.13,,-28.09,9.2,1,,80104.3,32570.92,28.61558,-80.93332,,,,,,,,,,,,0,280.52,
149.1,278.67,0,9.57,0,,0.08,19.63,,-28.08,9.63,0.99,,80152.43,32848.38,28.61563,-80.93616,,,,,,,,,,,,0,278.84,
150.12,277.36,0,9.57,0,,0.08,18.1,,-28.08,10.04,0.99,,80190.59,33125.84,28.61569,-80.939,,,,,,,,,,,,0,277.48,
151.14,276.38,0,9.57,0,,0.08,16.54,,-28.07,10.44,0.98,,80218.8,33403.3,28.61575,-80.94184,,,,,,,,,,,,0,276.46,
152.16,275.74,0,9.56,0,,0.08,14.93,,-28.07,10.81,0.98,,80237.04,33680.75,28.61581,-80.94468,,,,,,,,,,,,0,275.79,
153.16,275.44,0,9.56,0,,0.08,13.31,,-28.06,11.14,0.98,,80245.27,33952.76,28.61587,-80.94747,,,,,,,,,,,,0,275.46,
154.16,275.48,0,9.56,0,,0.08,11.66,,-28.05,11.45,0.98,,80243.91,34224.77,28.61593,-80.95026,,,,,,,,,,,,0,275.46,
155.16,275.85,0,9.56,0,,0.08,9.97,,-28.05,11.71,0.98,,80232.99,34496.77,28.61598,-80.95304,,,,,,,,,,,,0,275.8,
156.16,276.56,0,9.56,0,,0.08,8.23,,-28.04,11.93,0.98,,80212.5,34768.77,28.61604,-80.95583,,,,,,,,,,,,0,276.46,
157.18,277.61,0,9.56,0,,0.08,6.42,,-28.04,12.1,0.99,,80181.73,35046.2,28.6161,-80.95867,,,,,,,,,,,,0,277.48,
158.2,279,0,9.56,0,,0.08,4.56,,-28.03,12.22,0.99,,80141.01,35323.63,28.61616,-80.96151,,,,,,,,,,,,0,278.83,
159.22,280.72,0,9.56,0,,0.08,2.65,,-28.03,12.28,1,,80090.32,35601.05,28.61622,-80.96435,,,,,,,,,,,,0,280.52,
160.24,282.77,0,9.56,0,,0.08,0.7,,-28.02,12.26,1,,80029.68,35878.47,28.61627,-80.96719,,,,,,,,,,,,0,282.53,
161.26,285.13,0,9.56,0,,0.08,-1.31,,-28.01,12.18,1.01,,79959.08,36155.88,28.61633,-80.97003,,,,,,,,,,,,0,284.86,
162.26,287.75,0,9.56,0,,0.08,-3.32,,-28.01,12.03,1.02,,79880.2,36427.84,28.61639,-80.97282,,,,,,,,,,,,0,287.45,
163.26,290.67,0,9.56,0,,0.08,-5.38,,-28,11.8,1.03,,79791.75,36699.8,28.61645,-80.97561,,,,,,,,,,,,0,290.33,
164.26,293.86,0,9.56,0,,0.08,-7.5,,-28,11.5,1.04,,79693.72,36971.74,28.61651,-80.97839,,,,,,,,,,,,0,293.5,
165.26,297.33,0,9.56,0,,0.08,-9.66,,-27.99,11.11,1.05,,79586.12,37243.68,28.61656,-80.98118,,,,,,,,,,,,0,296.94,
166.26,301.06,0,9.57,0,,0.08,-11.88,,-27.99,10.64,1.07,,79468.96,37515.61,28.61662,-80.98396,,,,,,,,,,,,0,300.64,
167.26,305.05,0,9.57,0,,0.08,-14.14,,-27.98,10.09,1.08,,79342.21,37787.53,28.61668,-80.98675,,,,,,,,,,,,0,304.6,
168.26,309.28,0,9.57,0,,0.08,-16.46,,-27.97,9.45,1.09,,79205.9,38059.45,28.61673,-80.98953,,,,,,,,,,,,0,308.81,
169.26,313.75,0,9.57,0,,0.08,-18.82,,-27.97,8.74,1.11,,79060.01,38331.35,28.61679,-80.99232,,,,,,,,,,,,0,313.25,
170.26,318.44,0,9.57,0,,0.08,-21.23,,-27.96,7.94,1.13,,78904.55,38603.24,28.61685,-80.9951,,,,,,,,,,,,0,317.91,
171.28,323.45,0,9.57,0,,0.08,-23.74,,-27.96,7.04,1.14,,78736.12,38880.56,28.61691,-80.99794,,,,,,,,,,,,0,322.9,
172.28,328.56,0,9.57,0,,0.08,-26.25,,-27.95,6.08,1.16,,78561.33,39152.42,28.61696,-81.00072,,,,,,,,,,,,0,327.99,
173.28,333.87,0,9.57,0,,0.08,-28.79,,-27.95,5.05,1.18,,78376.95,39424.28,28.61702,-81.00351,,,,,,,,,,,,0,333.28,
174.3,339.48,0,9.57,0,,0.08,-31.41,,-27.94,3.93,1.2,,78179.03,39701.56,28.61708,-81.00635,,,,,,,,,,,,0,338.87,
175.32,345.28,0,9.57,0,,0.08,-34.07,,-27.93,2.75,1.22,,77971.14,39978.83,28.61714,-81.00919,,,,,,,,,,,,0,344.65,
176.32,351.13,0,9.57,0,,0.08,-36.7,,-27.93,1.53,1.24,,77757.66,40250.65,28.6172,-81.01197,,,,,,,,,,,,0,350.48,
177.32,357.15,0,9.58,0,,0.08,-39.33,,-27.92,0.27,1.26,,77534.6,40522.45,28.61725,-81.01476,,,,,,,,,,,,0,356.48,
178.32,363.31,0,9.58,0,,0.08,-41.97,,-27.92,-1.03,1.28,,77301.96,40794.24,28.61731,-81.01754,,,,,,,,,,,,0,362.63,
179.34,369.75,0,9.58,0,,0.08,-44.65,,-27.91,-2.39,1.3,,77054.8,41071.45,28.61737,-81.02038,,,,,,,,,,,,0,369.05,
180.34,376.21,0,9.58,0,,0.08,-47.26,,-27.91,-3.73,1.32,,76802.8,41343.21,28.61743,-81.02316,,,,,,,,,,,,0,375.49,
181.34,382.79,0,9.58,0,,0.08,-49.82,,-27.9,-5.07,1.34,,76541.23,41614.95,28.61748,-81.02595,,,,,,,,,,,,0,382.06,
182.34,389.5,0,9.58,0,,0.08,-52.33,,-27.9,-6.39,1.36,,76270.08,41886.67,28.61754,-81.02873,,,,,,,,,,,,0,388.75,
183.34,396.32,0,9.58,0,,0.08,-54.75,,-27.9,-7.67,1.39,,75989.34,42158.37,28.6176,-81.03151,,,,,,,,,,,,0,395.56,
184.36,403.39,0,9.59,0,,0.08,-57.12,,-27.9,-8.92,1.41,,75693.11,42435.48,28.61766,-81.03435,,,,,,,,,,,,0,402.63,
185.38,410.58,0,9.59,0,,0.08,-59.36,,-27.9,-10.08,1.43,,75386.91,42712.56,28.61771,-81.03719,,,,,,,,,,,,0,409.8,
186.4,417.87,0,9.59,0,,0.08,-61.44,,-27.9,-11.13,1.46,,75070.73,42989.61,28.61777,-81.04002,,,,,,,,,,,,0,417.08,
187.4,425.11,0,9.59,0,,0.08,-63.29,,-27.91,-12.02,1.48,,74751.07,43261.2,28.61783,-81.04281,,,,,,,,,,,,0,424.31,
188.4,432.44,0,9.59,0,,0.08,-64.92,,-27.91,-12.75,1.5,,74421.82,43532.76,28.61789,-81.04559,,,,,,,,,,,,0,431.63,
189.4,439.85,0,9.59,0,,0.08,-66.31,,-27.92,-13.28,1.53,,74082.97,43804.28,28.61794,-81.04837,,,,,,,,,,,,0,439.03,
190.4,447.35,0,9.59,0,,0.08,-67.42,,-27.94,-13.59,1.55,,73734.54,44075.76,28.618,-81.05115,,,,,,,,,,,,0,446.52,
191.4,454.92,0,9.59,0,,0.08,-68.23,,-27.95,-13.64,1.57,,73376.51,44347.19,28.61806,-81.05393,,,,,,,,,,,,0,454.08,
192.4,462.56,0,9.59,0,,0.08,-68.69,,-27.97,-13.41,1.6,,73008.89,44618.58,28.61811,-81.05671,,,,,,,,,,,,0,461.72,
193.4,470.28,0,9.59,0,,0.08,-68.81,,-27.99,-12.89,1.62,,72631.67,44889.93,28.61817,-81.05949,,,,,,,,,,,,0,469.43,
194.4,478.06,0,9.6,0,,0.08,-68.55,,-28,-12.05,1.64,,72244.85,45161.22,28.61823,-81.06227,,,,,,,,,,,,0,477.2,
195.4,485.91,0,9.6,0,,0.08,-67.91,,-28.01,-10.9,1.67,,71848.44,45432.46,28.61828,-81.06504,,,,,,,,,,,,0,485.05,
196.42,493.99,0,9.6,0,,0.08,-66.88,,-28.02,-9.4,1.69,,71434.22,45709.07,28.61834,-81.06788,,,,,,,,,,,,0,493.11,
197.42,501.96,0,9.6,0,,0.08,-65.51,,-28.02,-7.64,1.71,,71018.42,45980.22,28.6184,-81.07065,,,,,,,,,,,,0,501.08,
198.44,510.15,0,9.6,0,,0.08,-63.79,,-28.01,-5.59,1.73,,70584.43,46256.73,28.61846,-81.07349,,,,,,,,,,,,0,509.27,
199.44,518.24,0,9.59,0,,0.08,-61.86,,-28,-3.37,1.76,,70149.25,46527.78,28.61851,-81.07626,,,,,,,,,,,,0.01,517.35,
200.44,526.38,0,9.59,0,,0.08,-59.77,,-27.99,-1.02,1.78,,69704.47,46798.8,28.61857,-81.07904,,,,,,,,,,,,0.01,525.49,
201.44,534.57,0,9.58,0,,0.08,-57.63,,-27.97,1.35,1.8,,69250.11,47069.78,28.61863,-81.08181,,,,,,,,,,,,0.01,533.67,
202.44,542.81,0,9.57,0,,0.08,-55.57,,-27.95,3.64,1.82,,68786.16,47340.74,28.61869,-81.08459,,,,,,,,,,,,0.01,541.9,
203.46,551.25,0,9.56,0,,0.08,-53.71,,-27.93,5.74,1.85,,68303.05,47617.09,28.61874,-81.08742,,,,,,,,,,,,0.01,550.34,
204.46,559.56,0.01,9.55,0,,0.08,-52.29,,-27.91,7.44,1.87,,67819.76,47888.02,28.6188,-81.09019,,,,,,,,,,,,0.01,558.65,
205.46,567.91,0.01,9.54,0,,0.08,-51.45,,-27.88,8.62,1.89,,67326.89,48158.94,28.61886,-81.09297,,,,,,,,,,,,0.01,566.99,
206.46,576.28,0.01,9.53,0,,0.08,-51.32,,-27.86,9.14,1.91,,66824.47,48429.87,28.61891,-81.09574,,,,,,,,,,,,0.01,575.36,
207.48,584.86,0.01,9.52,0,,0.08,-52.05,,-27.84,8.9,1.93,,66302.16,48706.23,28.61897,-81.09857,,,,,,,,,,,,0.01,583.94,
208.5,593.48,0.01,9.53,0,,0.08,-53.71,,-27.81,7.83,1.95,,65769.92,48982.6,28.61903,-81.10141,,,,,,,,,,,,0.01,592.55,
209.5,601.96,0.01,9.54,0,,0.08,-56.19,,-27.79,5.99,1.97,,65238.47,49253.56,28.61909,-81.10418,,,,,,,,,,,,0.01,601.03,
210.5,610.49,0.01,9.56,0,,0.08,-59.4,,-27.77,3.52,1.99,,64697.45,49524.52,28.61914,-81.10696,,,,,,,,,,,,0.01,609.55,
211.5,619.05,0,9.58,0,,0.08,-63.06,,-27.75,0.63,2.01,,64146.87,49795.47,28.6192,-81.10973,,,,,,,,,,,,0.01,618.1,
212.5,627.64,0,9.6,0,,0.08,-66.81,,-27.74,-2.33,2.04,,63586.7,50066.37,28.61926,-81.11251,,,,,,,,,,,,0.01,626.69,
213.5,636.25,0.01,9.61,0,,0.08,-70.17,,-27.76,-4.97,2.06,,63016.95,50337.21,28.61931,-81.11528,,,,,,,,,,,,0.01,635.31,
214.5,644.87,0.01,9.62,0,,0.08,-72.64,,-27.8,-6.83,2.08,,62437.58,50607.95,28.61937,-81.11805,,,,,,,,,,,,0.02,643.94,
215.5,653.51,0.02,9.63,0,,0.08,-73.78,,-27.86,-7.52,2.1,,61848.61,50878.56,28.61943,-81.12082,,,,,,,,,,,,0.02,652.6,
216.5,662.17,0.02,9.63,0,,0.08,-73.32,,-27.92,-6.79,2.12,,61250.03,51149.01,28.61948,-81.12359,,,,,,,,,,,,0.02,661.28,
217.52,671.04,0.02,9.62,0,,0.08,-71.22,,-27.96,-4.62,2.14,,60629.57,51424.71,28.61954,-81.12642,,,,,,,,,,,,0.02,670.18,
218.54,679.95,0.01,9.6,0,,0.08,-67.9,,-27.95,-1.38,2.16,,59999.11,51700.28,28.6196,-81.12924,,,,,,,,,,,,0.02,679.14,
219.56,688.89,0.01,9.56,0,,0.08,-64.2,,-27.92,2.19,2.18,,59358.69,51975.78,28.61966,-81.13206,,,,,,,,,,,,0.02,688.14,
220.58,697.83,0.02,9.49,0,,0.08,-61.24,,-27.87,5.1,2.19,,58708.32,52251.26,28.61972,-81.13488,,,,,,,,,,,,0.03,697.16,
221.6,706.76,0.03,9.44,0,,0.08,-60.14,,-27.81,6.35,2.21,,58048.06,52526.8,28.61977,-81.13771,,,,,,,,,,,,0.03,706.19,
222.6,715.54,0.03,9.44,0,,0.08,-61.49,,-27.76,5.41,2.23,,57391.16,52797.02,28.61983,-81.14047,,,,,,,,,,,,0.03,715.07,
223.6,724.34,0.02,9.5,0,,0.08,-65.1,,-27.72,2.47,2.25,,56724.77,53067.31,28.61989,-81.14324,,,,,,,,,,,,0.04,724.01,
224.62,733.36,0.01,9.58,0,,0.08,-69.9,,-27.7,-1.52,2.27,,56035.24,53343.02,28.61994,-81.14607,,,,,,,,,,,,0.04,733.19,
225.64,742.38,0.03,9.63,0,,0.08,-73.85,,-27.75,-4.76,2.29,,55335.75,53618.6,28.62,-81.14889,,,,,,,,,,,,0.04,742.4,
226.66,751.37,0.04,9.65,0,,0.08,-74.97,,-27.86,-5.49,2.31,,54626.27,53893.93,28.62006,-81.15171,,,,,,,,,,,,0.05,751.62,
227.66,760.22,0.03,9.63,0,,0.08,-72.63,,-27.93,-3.17,2.33,,53920.99,54163.56,28.62012,-81.15447,,,,,,,,,,,,0.05,760.71,
228.68,769.28,0.01,9.54,0,,0.08,-68.08,,-27.9,1.1,2.35,,53191.73,54438.37,28.62017,-81.15728,,,,,,,,,,,,0.06,770.07,
229.68,778.16,0.04,9.38,0,,0.08,-64.5,,-27.83,4.48,2.37,,52467.17,54707.76,28.62023,-81.16004,,,,,,,,,,,,0.06,779.29,
230.7,787.19,0.05,9.31,0,,0.08,-64.76,,-27.74,4.46,2.39,,51718.41,54982.71,28.62029,-81.16286,,,,,,,,,,,,0.07,788.71,
231.72,796.25,0.02,9.45,0,,0.08,-69.24,,-27.68,0.71,2.42,,50959.88,55257.83,28.62035,-81.16568,,,,,,,,,,,,0.07,798.25,
232.74,805.33,0.04,9.62,0,,0.08,-74.35,,-27.72,-3.59,2.44,,50191.47,55532.89,28.6204,-81.16849,,,,,,,,,,,,0.08,807.9,
233.74,814.18,0.07,9.66,0,,0.08,-75.2,,-27.87,-4.13,2.47,,49428.46,55802.2,28.62046,-81.17125,,,,,,,,,,,,0.09,817.41,
234.74,823.07,0.03,9.54,0,,0.08,-70.97,,-27.9,-0.17,2.49,,48655.88,56071.07,28.62052,-81.17401,,,,,,,,,,,,0.1,827.08,
235.76,832.13,0.07,9.24,0,,0.08,-66.63,,-27.8,3.87,2.52,,47858.1,56345.21,28.62058,-81.17681,,,,,,,,,,,,0.11,837.11,
236.78,841.15,0.07,9.21,0,,0.08,-68.46,,-27.7,2.42,2.56,,47050.66,56619.62,28.62063,-81.17963,,,,,,,,,,,,0.12,847.25,
237.8,850.21,0.05,9.55,0,,0.08,-74.34,,-27.69,-2.59,2.59,,46233.5,56894.17,28.62069,-81.18244,,,,,,,,,,,,0.13,857.65,
238.8,859.02,0.1,9.66,0,,0.08,-75.1,,-27.87,-3.05,2.62,,45422.78,57162.88,28.62075,-81.18519,,,,,,,,,,,,0.15,867.99,
239.8,867.87,0.04,9.3,0,,0.08,-69.72,,-27.85,1.91,2.66,,44602.57,57431.05,28.6208,-81.18794,,,,,,,,,,,,0.16,878.61,
240.8,876.64,0.12,8.97,0,,0.08,-68.91,,-27.71,2.77,2.69,,43773.11,57699.38,28.62086,-81.19068,,,,,,,,,,,,0.18,889.43,
241.8,885.45,0.06,9.47,0,,0.08,-74.83,,-27.69,-2.3,2.73,,42934.5,57967.97,28.62092,-81.19344,,,,,,,,,,,,0.2,900.57,
242.82,894.33,0.11,9.57,0,,0.08,-74.05,,-27.87,-1.4,2.77,,42069.44,58241.32,28.62097,-81.19624,,,,,,,,,,,,0.23,912.16,
243.82,903.05,0.14,8.81,0,,0.08,-69.31,,-27.76,2.95,2.81,,41211.94,58508.87,28.62103,-81.19898,,,,,,,,,,,,0.25,923.87,
244.82,911.67,0.06,9.14,0,,0.08,-74.25,,-27.67,-1.29,2.84,,40345.5,58776.84,28.62109,-81.20172,,,,,,,,,,,,0.28,935.79,
245.84,920.33,0.14,9.41,0,,0.08,-74.08,,-27.86,-0.92,2.88,,39452.3,59049.59,28.62114,-81.20451,,,,,,,,,,,,0.32,948.17,
246.84,928.73,0.2,8.38,0,,0.08,-70.69,,-27.71,2.19,2.92,,38567.52,59316.51,28.6212,-81.20725,,,,,,,,,,,,0.36,960.56,
247.84,937,0.19,9.29,0,,0.08,-75.99,,-27.76,-2.33,2.96,,37674.11,59583.69,28.62126,-81.20998,,,,,,,,,,,,0.4,973.17,
248.84,945.11,0.16,8.26,0,,0.08,-71.29,,-27.77,2,3,,36771.85,59849.87,28.62131,-81.21271,,,,,,,,,,,,0.46,985.95,
249.84,953.02,0.16,8.65,0,,0.08,-75.62,,-27.7,-1.71,3.04,,35861.28,60116.23,28.62137,-81.21544,,,,,,,,,,,,0.52,998.87,
250.84,960.72,0.19,7.89,0,,0.08,-72.03,,-27.77,1.65,3.08,,34942.29,60381.63,28.62142,-81.21816,,,,,,,,,,,,0.59,1011.91,
251.84,968.15,0.25,8.46,0,,0.08,-75.94,,-27.73,-1.69,3.11,,34015.4,60647,28.62148,-81.22087,,,,,,,,,,,,0.67,1024.99,
252.84,975.28,0.33,7.03,0,,0.08,-72.55,,-27.7,1.45,3.15,,33080.61,60911.3,28.62154,-81.22358,,,,,,,,,,,,0.77,1038.05,
253.86,982.21,0.36,8.27,0,,0.08,-74.76,,-27.8,-0.33,3.19,,32119.56,61180.55,28.62159,-81.22634,,,,,,,,,,,,0.88,1051.25,
254.88,988.72,0.32,6.93,0,,0.08,-75.73,,-27.7,-1.09,3.22,,31151.13,61448.92,28.62165,-81.22909,,,,,,,,,,,,1.02,1064.29,
255.88,994.61,0.46,5.71,0,,0.08,-73.98,,-27.68,0.59,3.26,,30194.95,61710.94,28.6217,-81.23177,,,,,,,,,,,,1.17,1076.73,
256.9,1000.05,0.44,5.41,0,,0.08,-73.75,,-27.72,0.96,3.29,,29213.38,61977.26,28.62176,-81.2345,,,,,,,,,,,,1.35,1088.88,
257.92,1004.8,0.51,5.7,0,,0.08,-74.36,,-27.74,0.57,3.32,,28226.09,62242.4,28.62182,-81.23722,,,,,,,,,,,,1.57,1100.16,
258.92,1008.69,0.61,5.66,0,,0.08,-74.84,,-27.74,0.28,3.35,,27253.31,62500.96,28.62187,-81.23986,,,,,,,,,,,,1.81,1110.16,
259.92,1011.7,0.7,4.94,0,,0.08,-74.96,,-27.72,0.29,3.37,,26276.52,62757.95,28.62192,-81.2425,,,,,,,,,,,,2.1,1118.87,
260.94,1013.7,0.79,3.22,0,,0.08,-74.93,,-27.7,0.44,3.39,,25277.05,63018.23,28.62198,-81.24516,,,,,,,,,,,,2.45,1126.14,
261.94,1014.47,0.93,1.21,0,,0.08,-75.34,,-27.67,0.18,3.41,,24295.2,63271.35,28.62203,-81.24775,,,,,,,,,,,,2.85,1131.36,
262.96,1013.82,1.07,2.37,0,,0.08,-75.99,,-27.68,-0.25,3.42,,23293.01,63527.13,28.62208,-81.25037,,,,,,,,,,,,3.32,1134.38,
263.96,1011.59,1.24,4.28,0,,0.08,-75.69,,-27.67,0.14,3.43,,22311.23,63775.09,28.62214,-81.25291,,,,,,,,,,,,3.88,1134.68,
264.96,1007.54,1.44,4.98,0,,0.08,-76.09,,-27.66,-0.1,3.44,,21331.92,64020,28.62219,-81.25542,,,,,,,,,,,,4.52,1131.95,
265.96,1001.41,1.66,7.25,0,,0.08,-76.04,,-27.65,0.07,3.44,,20356.94,64261.34,28.62224,-81.25789,,,,,,,,,,,,5.28,1125.78,
266.98,992.75,1.91,9.62,0,,0.08,-76.23,,-27.64,0.03,3.43,,19369.18,64503.36,28.62229,-81.26037,,,,,,,,,,,,6.19,1114.98,
267.98,981.65,2.18,12.16,0,,0.08,-76.39,,-27.62,0.01,3.41,,18409.83,64736,28.62234,-81.26276,,,,,,,,,,,,7.23,1098.79,
269,967.45,2.48,15,0,,0.08,-76.53,,-27.61,0.01,3.37,,17443.27,64967.95,28.62238,-81.26513,,,,,,,,,,,,8.47,1075.72,
270,950.6,2.77,17.88,0,,0.08,-76.67,,-27.6,0,3.31,,16510.25,65189.48,28.62243,-81.2674,,,,,,,,,,,,9.87,1046.51,
271.02,930.43,3.07,20.77,0,,0.08,-76.82,,-27.59,0,3.23,,15576.43,65408.84,28.62247,-81.26965,,,,,,,,,,,,11.5,1010.65,
272.02,907.89,3.35,23.42,0,,0.08,-76.96,,-27.57,0,3.13,,14681.23,65616.83,28.62252,-81.27178,,,,,,,,,,,,13.29,971.29,
273.02,882.86,3.59,25.84,0,,0.08,-77.1,,-27.55,0,3.03,,13808.74,65817.29,28.62256,-81.27383,,,,,,,,,,,,15.29,930.45,
274.04,855.01,3.82,28.03,0,,0.08,-77.25,,-27.54,0,2.9,,12944.61,66013.56,28.6226,-81.27584,,,,,,,,,,,,17.52,888.74,
275.06,825.15,4.01,29.89,0,,0.08,-77.4,,-27.52,0,2.78,,12108.74,66201.13,28.62263,-81.27776,,,,,,,,,,,,19.95,847.82,
276.06,794.3,4.16,31.33,0,,0.08,-77.55,,-27.5,0,2.65,,11318.46,66376.31,28.62267,-81.27956,,,,,,,,,,,,22.51,808.92,
277.06,762.28,4.27,32.37,0,,0.08,-77.71,,-27.49,0,2.52,,10558.47,66542.65,28.6227,-81.28126,,,,,,,,,,,,25.23,771.46,
278.06,729.5,4.33,33.01,0,,0.08,-77.87,,-27.47,0,2.39,,9829.72,66700.06,28.62273,-81.28287,,,,,,,,,,,,28.09,735.44,
279.06,696.35,4.36,33.26,0,,0.08,-78.04,,-27.46,0,2.26,,9132.81,66848.53,28.62276,-81.28439,,,,,,,,,,,,31.07,700.67,
280.06,663.22,4.35,33.13,0,,0.08,-78.21,,-27.44,0,2.13,,8467.91,66988.15,28.62279,-81.28582,,,,,,,,,,,,34.16,666.93,
281.08,629.79,4.3,32.67,0,,0.08,-78.39,,-27.43,0,2,,7822.55,67121.62,28.62281,-81.28719,,,,,,,,,,,,37.39,633.37,
282.08,597.79,4.2,31.72,0,,0.08,-78.57,,-27.41,0,1.89,,7221.52,67243.93,28.62283,-81.28844,,,,,,,,,,,,40.62,601.25,
283.08,567.23,4.04,30.1,0,,0.08,-78.76,,-27.39,0,1.78,,6650.81,67358.14,28.62285,-81.28961,,,,,,,,,,,,43.9,570.51,
284.1,537.98,3.84,28.12,0,,0.08,-78.97,,-27.37,0,1.68,,6098.21,67466.76,28.62287,-81.29073,,,,,,,,,,,,47.27,541.04,
285.1,511.32,3.64,26.13,0,,0.08,-79.17,,-27.36,0,1.58,,5583.51,67566.06,28.62289,-81.29174,,,,,,,,,,,,50.6,514.16,
286.1,486.5,3.46,24.4,0,,0.08,-79.38,,-27.34,0,1.5,,5093.68,67658.71,28.62291,-81.29269,,,,,,,,,,,,53.95,489.15,
287.12,462.61,3.33,23.14,0,,0.08,-79.6,,-27.32,0,1.42,,4618.08,67746.83,28.62292,-81.2936,,,,,,,,,,,,57.37,465.13,
288.12,439.68,3.35,23.3,0,,0.08,-79.83,,-27.29,0,1.34,,4174.34,67827.26,28.62294,-81.29442,,,,,,,,,,,,60.72,442.27,
289.14,413.47,3.73,27.04,0,,0.08,-80.06,,-27.27,0,1.26,,3745.82,67903.17,28.62295,-81.2952,,,,,,,,,,,,64.11,416.5,
290.14,383.92,4.08,30.38,0,,0.08,-80.3,,-27.24,0,1.16,,3353.02,67971.07,28.62296,-81.29589,,,,,,,,,,,,67.35,387.28,
291.14,354.71,3.83,27.95,0,,0.08,-80.56,,-27.22,0,1.07,,2989.46,68032.3,28.62297,-81.29652,,,,,,,,,,,,70.48,357.67,
292.14,334.3,2.72,17.11,0,,0.08,-80.83,,-27.19,0,1,,2650.62,68087.78,28.62298,-81.29709,,,,,,,,,,,,73.51,336.03,
293.16,322.59,1.96,9.71,0,,0.08,-81.1,,-27.16,0,0.96,,2320.42,68140.23,28.62298,-81.29763,,,,,,,,,,,,76.56,323.58,
294.18,315.51,1.6,6.23,0,,0.08,-81.38,,-27.13,0,0.94,,1999.1,68189.69,28.62299,-81.29813,,,,,,,,,,,,79.63,316.14,
295.18,310.72,1.43,4.59,0,,0.08,-81.65,,-27.1,0,0.92,,1689.58,68235.83,28.623,-81.2986,,,,,,,,,,,,82.69,311.18,
296.2,306.91,1.35,3.79,0,,0.08,-81.91,,-27.07,0,0.91,,1377.92,68280.81,28.623,-81.29907,,,,,,,,,,,,85.87,307.29,
297.22,303.57,1.32,3.48,0,,0.08,-82.17,,-27.03,0,0.89,,1069.62,68323.85,28.62301,-81.29951,,,,,,,,,,,,89.12,303.92,
298.22,300.49,1.3,3.29,0,,0.08,-82.43,,-27,0,0.88,,770.35,68364.27,28.62301,-81.29992,,,,,,,,,,,,92.37,300.82,
299.22,297.58,1.28,3.12,0,,0.08,-82.67,,-26.96,0,0.87,,473.88,68403,28.62302,-81.30032,,,,,,,,,,,,95.7,297.89,
300.24,294.76,1.27,2.98,0,,0.08,-82.92,,-26.92,0,0.86,,174.21,68440.86,28.62302,-81.30071,,,,,,,,,,,,99.17,295.06,
