Time,Surface Speed (m/s),GForce (g),Acceleration (m/s^2),Thrust (kN),TWR,Mass (t),Pitch (deg),Heading (deg),Roll (deg),Angle of Attack (deg),Mach number,Altitude from Terrain (m),Altitude from the Sea (m),Downrange Distance (m),Latitude (deg),Longitude (deg),Apoapsis (m),Periapsis (m),Time to Apoapsis (s),Time to Periapsis (s),Inclination (deg),Orbital Velocity (m/s),Gravity (m/s^2),Target Distance (m),Target Speed (m/s),Stage DeltaV (m/s),Vessel DeltaV (m/s),Pressure (kPa),External Temperature (K),
1.02,116.18,12.34,111.25,52.09,,0.41,84.23,,-80.95,0,0.3,,160.08,6.01,28.60839,-80.59981,,,,,,,,,,,,99.48,293.06,
2.04,234.66,13.05,118.2,52.18,,0.38,83.9,,-51.82,0,0.65,,338.64,24.63,28.60839,-80.6,,,,,,,,,,,,97.42,292.15,
3.06,354.6,12.75,115.32,52.32,,0.36,83.69,,-6,0,1,,639.19,57.38,28.60838,-80.60033,,,,,,,,,,,,94.03,342.23,
4.1,462.16,11.61,104.1,52.47,,0.33,83.53,,52.37,0,1.32,,1062.39,104.87,28.60838,-80.60082,,,,,,,,,,,,89.41,450.5,
5.12,572.99,12.04,108.32,52.61,,0.3,83.4,,116.39,0,1.66,,1588.02,165.15,28.60837,-80.60144,,,,,,,,,,,,83.94,561.13,
6.12,678.55,11.62,104.28,52.71,,0.28,83.29,,-174.9,0,1.98,,2210.97,237.86,28.60837,-80.60218,,,,,,,,,,,,77.82,667.14,
7.12,706.12,7.6,84.22,0,,0.26,83.19,,-109.29,0,2.14,,2921.26,322.07,28.60836,-80.60304,,,,,,,,,,,,71.31,715.65,
8.16,647.19,3.73,46.3,0,,0.17,83.08,,-87.22,0,1.96,,3615.57,405.68,28.60835,-80.6039,,,,,,,,,,,,65.38,652.19,
9.16,624.55,0.49,14.57,4.55,,0.17,82.96,,-77.11,0,1.9,,4243.6,482.56,28.60834,-80.60469,,,,,,,,,,,,60.38,626.1,
10.16,612.2,0.18,11.54,4.55,,0.16,82.85,,-72.15,0,1.87,,4856.87,558.87,28.60833,-80.60547,,,,,,,,,,,,55.81,613.42,
11.18,602.41,0.09,8.91,4.55,,0.16,82.72,,-69.55,0,1.85,,5471.09,636.6,28.60833,-80.60627,,,,,,,,,,,,51.53,603.34,
12.18,595.17,0.32,6.72,4.54,,0.16,82.6,,-68.18,0,1.84,,6064.72,713.02,28.60832,-80.60705,,,,,,,,,,,,47.65,595.86,
13.18,589.96,0.51,4.82,4.54,,0.16,82.47,,-67.41,0,1.84,,6652.04,789.94,28.60831,-80.60784,,,,,,,,,,,,44.05,590.44,
14.2,586.49,0.69,3.17,4.54,,0.16,82.34,,-66.96,0,1.84,,7246.58,869.17,28.6083,-80.60865,,,,,,,,,,,,40.64,586.78,
15.2,584.7,0.85,1.9,4.53,,0.15,82.2,,-66.7,0,1.85,,7826.71,947.86,28.60829,-80.60945,,,,,,,,,,,,37.52,584.83,
16.2,584.34,0.99,1.37,4.53,,0.15,82.07,,-66.54,0,1.86,,8405.61,1027.76,28.60828,-80.61027,,,,,,,,,,,,34.6,584.31,
17.22,585.32,1.12,1.94,4.53,,0.15,81.93,,-66.44,0,1.88,,8996.22,1110.72,28.60826,-80.61112,,,,,,,,,,,,31.82,585.15,
18.24,587.57,1.25,2.94,4.52,,0.15,81.78,,-66.38,0,1.9,,9588.27,1195.38,28.60825,-80.61199,,,,,,,,,,,,29.22,587.27,
19.26,591.03,1.37,4,4.52,,0.15,81.64,,-66.35,0,1.93,,10183,1281.95,28.60824,-80.61288,,,,,,,,,,,,26.79,590.6,
20.28,595.64,1.48,5.08,4.52,,0.14,81.49,,-66.33,0,1.96,,10781.6,1370.62,28.60823,-80.61379,,,,,,,,,,,,24.51,595.09,
21.28,601.26,1.59,6.13,4.51,,0.14,81.35,,-66.32,0,1.99,,11373.31,1459.8,28.60821,-80.6147,,,,,,,,,,,,22.43,600.59,
22.3,608.1,1.7,7.2,4.51,,0.14,81.2,,-66.32,0,2.03,,11982.91,1553.26,28.6082,-80.61566,,,,,,,,,,,,20.44,607.31,
23.3,615.89,1.81,8.25,4.51,,0.14,81.05,,-66.32,0,2.07,,12587.56,1647.55,28.60818,-80.61662,,,,,,,,,,,,18.62,615,
24.32,624.92,1.92,9.31,4.51,,0.14,80.9,,-66.33,0,2.12,,13212.52,1746.65,28.60817,-80.61764,,,,,,,,,,,,16.89,623.96,
25.32,634.82,2.02,10.34,4.51,,0.13,80.75,,-66.34,0,2.16,,13834.34,1846.89,28.60815,-80.61866,,,,,,,,,,,,15.31,633.86,
26.34,645.99,2.13,11.39,4.51,,0.13,80.6,,-66.35,0,2.22,,14478.94,1952.51,28.60814,-80.61975,,,,,,,,,,,,13.81,645.13,
27.36,658.25,2.24,12.45,4.5,,0.13,80.45,,-66.36,0,2.27,,15135.06,2061.75,28.60812,-80.62086,,,,,,,,,,,,12.42,657.65,
28.36,671.33,2.35,13.5,4.5,,0.13,80.31,,-66.38,0,2.32,,15790.54,2172.62,28.6081,-80.622,,,,,,,,,,,,11.17,671.18,
29.36,685.49,2.46,14.58,4.5,,0.13,80.16,,-66.39,0,2.38,,16459.17,2287.44,28.60808,-80.62318,,,,,,,,,,,,10.01,686.01,
30.36,700.75,2.57,15.69,4.5,,0.12,80.02,,-66.41,0,2.43,,17142,2406.46,28.60806,-80.62439,,,,,,,,,,,,8.95,702.2,
31.38,717.47,2.68,16.83,4.5,,0.12,79.87,,-66.42,0,2.48,,17854.24,2532.45,28.60804,-80.62568,,,,,,,,,,,,7.97,720.18,
32.4,735.36,2.8,17.98,4.5,,0.12,79.73,,-66.43,0,2.54,,18583.54,2663.34,28.60802,-80.62703,,,,,,,,,,,,7.08,739.71,
33.4,754.05,2.92,19.11,4.5,,0.12,79.59,,-66.44,0,2.59,,19316.23,2796.7,28.60799,-80.62839,,,,,,,,,,,,6.28,760.46,
34.4,773.88,3.03,20.25,4.5,,0.12,79.45,,-66.45,0,2.65,,20067.54,2935.31,28.60797,-80.62981,,,,,,,,,,,,5.57,782.89,
35.4,794.84,3.15,21.39,4.5,,0.11,79.31,,-66.46,0,2.71,,20838.57,3079.46,28.60795,-80.63129,,,,,,,,,,,,4.92,807.16,
36.42,817.41,3.27,22.55,4.5,,0.11,79.17,,-66.48,0,2.77,,21646.48,3232.48,28.60792,-80.63285,,,,,,,,,,,,4.33,834.04,
37.42,840.68,3.38,23.69,4.5,,0.11,79.04,,-66.49,0,2.84,,22460.72,3388.65,28.60789,-80.63445,,,,,,,,,,,,3.81,862.67,
38.42,865.09,3.5,24.83,4.5,,0.11,78.91,,-66.5,0,2.91,,23298,3551.22,28.60786,-80.63612,,,,,,,,,,,,3.34,893.79,
39.42,890.66,3.61,25.99,4.5,,0.11,78.78,,-66.51,0,2.99,,24159.44,3720.46,28.60783,-80.63785,,,,,,,,,,,,2.92,927.65,
40.42,917.39,3.73,27.16,4.5,,0.1,78.66,,-66.52,0,3.06,,25046.16,3896.68,28.6078,-80.63966,,,,,,,,,,,,2.55,964.52,
41.44,945.88,3.86,28.37,4.5,,0.1,78.53,,-66.53,0,3.15,,25977.83,4083.94,28.60777,-80.64158,,,,,,,,,,,,2.21,1005.55,
42.46,975.61,3.98,29.6,4.5,,0.1,78.41,,-66.54,0,3.23,,26938.19,4279.1,28.60773,-80.64357,,,,,,,,,,,,1.91,1050.37,
43.46,1006,4.11,30.83,4.5,,0.1,78.29,,-66.55,0,3.32,,27908.77,4478.43,28.6077,-80.64562,,,,,,,,,,,,1.65,1098.33,
44.46,1037.64,4.23,32.08,4.5,,0.1,78.17,,-66.56,0,3.41,,28909.3,4686.02,28.60766,-80.64774,,,,,,,,,,,,1.42,1150.6,
45.46,1070.55,4.36,33.36,4.5,,0.09,78.06,,-66.57,0,3.5,,29941,4902.19,28.60762,-80.64996,,,,,,,,,,,,1.22,1207.46,
46.48,1105.46,4.5,34.71,4.5,,0.09,77.95,,-66.58,0,3.6,,31026.74,5131.89,28.60758,-80.65231,,,,,,,,,,,,1.04,1270.62,
47.48,1141.05,4.64,36.06,4.5,,0.09,77.84,,-66.59,0,3.69,,32125.23,5366.47,28.60754,-80.65471,,,,,,,,,,,,0.89,1338.18,
48.5,1178.77,4.78,37.47,4.5,,0.09,77.73,,-66.6,0,3.79,,33281.77,5615.68,28.60749,-80.65726,,,,,,,,,,,,0.75,1413.31,
49.5,1217.17,4.93,38.89,4.5,,0.09,77.62,,-66.61,0,3.9,,34452.38,5870.13,28.60745,-80.65987,,,,,,,,,,,,0.64,1493.4,
50.5,1231.97,0.25,12.13,0,,0.08,77.52,,-66.62,0,3.94,,35654.65,6133.66,28.6074,-80.66257,,,,,,,,,,,,0.54,1532.54,
51.52,1220.15,0.2,11.66,0,,0.08,77.42,,-66.62,0,3.88,,36875.28,6403.46,28.60735,-80.66533,,,,,,,,,,,,0.45,1494.05,
52.54,1208.76,0.16,11.27,0,,0.08,77.31,,-66.63,0,3.82,,38083.86,6672.88,28.60731,-80.66809,,,,,,,,,,,,0.39,1458.38,
53.54,1197.94,0.13,10.96,0,,0.08,77.2,,-66.64,0,3.77,,39257.43,6936.73,28.60726,-80.67079,,,,,,,,,,,,0.33,1425.8,
54.54,1187.39,0.11,10.7,0,,0.08,77.1,,-66.65,0,3.71,,40420.09,7200.36,28.60721,-80.67349,,,,,,,,,,,,0.28,1395.33,
55.54,1177.09,0.08,10.48,0,,0.08,76.99,,-66.66,0,3.66,,41572.09,7463.82,28.60716,-80.67619,,,,,,,,,,,,0.24,1366.78,
56.54,1166.98,0.07,10.32,0,,0.08,76.87,,-66.67,0,3.61,,42713.63,7727.16,28.60712,-80.67889,,,,,,,,,,,,0.21,1340.05,
57.54,1156.97,0.06,10.23,0,,0.08,76.76,,-66.68,0,3.56,,43844.87,7990.4,28.60707,-80.68158,,,,,,,,,,,,0.18,1315.07,
58.54,1147.05,0.05,10.16,0,,0.08,76.64,,-66.68,0,3.51,,44965.88,8253.57,28.60702,-80.68428,,,,,,,,,,,,0.16,1291.83,
59.56,1137.01,0.04,10.09,0,,0.08,76.52,,-66.69,0,3.47,,46098.85,8521.94,28.60697,-80.68703,,,,,,,,,,,,0.13,1269.85,
60.56,1127.23,0.04,10.04,0,,0.08,76.41,,-66.7,0,3.43,,47199.42,8785,28.60693,-80.68972,,,,,,,,,,,,0.12,1249.91,
61.58,1117.31,0.03,9.99,0,,0.08,76.28,,-66.71,0,3.4,,48311.66,9053.28,28.60688,-80.69247,,,,,,,,,,,,0.1,1231.14,
62.6,1107.44,0.03,9.95,0,,0.08,76.16,,-66.72,0,3.36,,49413.51,9321.53,28.60683,-80.69522,,,,,,,,,,,,0.09,1213.85,
63.6,1097.8,0.03,9.92,0,,0.08,76.03,,-66.73,0,3.34,,50483.7,9584.5,28.60678,-80.69791,,,,,,,,,,,,0.08,1198.27,
64.6,1088.21,0.02,9.88,0,,0.08,75.9,,-66.74,0,3.31,,51543.98,9847.45,28.60674,-80.7006,,,,,,,,,,,,0.07,1183.82,
65.62,1078.46,0.02,9.86,0,,0.08,75.77,,-66.74,0,3.3,,52615.28,10115.66,28.60669,-80.70335,,,,,,,,,,,,0.06,1170.06,
66.62,1068.92,0.02,9.83,0,,0.08,75.64,,-66.75,0,3.28,,53655.62,10378.6,28.60664,-80.70604,,,,,,,,,,,,0.05,1157.35,
67.64,1059.23,0.02,9.81,0,,0.08,75.5,,-66.76,0,3.27,,54706.63,10646.8,28.60659,-80.70879,,,,,,,,,,,,0.05,1144.78,
68.66,1049.57,0.02,9.79,0,,0.08,75.36,,-66.77,0,3.25,,55747.44,10915.01,28.60654,-80.71154,,,,,,,,,,,,0.04,1132.44,
69.66,1040.12,0.01,9.77,0,,0.08,75.23,,-66.78,0,3.24,,56757.94,11177.97,28.6065,-80.71423,,,,,,,,,,,,0.04,1120.71,
70.68,1030.5,0.01,9.76,0,,0.08,75.08,,-66.79,0,3.23,,57778.58,11446.19,28.60645,-80.71698,,,,,,,,,,,,0.03,1109.01,
71.68,1021.09,0.01,9.74,0,,0.08,74.94,,-66.79,0,3.22,,58769.35,11709.18,28.6064,-80.71967,,,,,,,,,,,,0.03,1097.71,
72.68,1011.7,0.01,9.73,0,,0.08,74.79,,-66.8,0,3.21,,59750.38,11972.17,28.60635,-80.72236,,,,,,,,,,,,0.02,1086.52,
73.7,1002.14,0.01,9.72,0,,0.08,74.64,,-66.81,0,3.2,,60740.99,12240.45,28.60631,-80.72511,,,,,,,,,,,,0.02,1075.13,
74.7,992.79,0.01,9.71,0,,0.08,74.49,,-66.82,0,3.19,,61702.36,12503.48,28.60626,-80.72781,,,,,,,,,,,,0.02,1063.94,
75.72,983.27,0.01,9.7,0,,0.08,74.33,,-66.83,0,3.18,,62672.95,12771.79,28.60621,-80.73055,,,,,,,,,,,,0.02,1052.49,
76.74,973.77,0.01,9.69,0,,0.08,74.17,,-66.84,0,3.17,,63633.45,13040.13,28.60616,-80.7333,,,,,,,,,,,,0.01,1041.01,
77.74,964.47,0.01,9.68,0,,0.08,74.01,,-66.85,0.01,3.16,,64565.32,13303.23,28.60612,-80.736,,,,,,,,,,,,0.01,1029.73,
78.76,955,0.01,9.67,0,,0.08,73.85,,-66.85,0.01,3.14,,65505.85,13571.61,28.60607,-80.73874,,,,,,,,,,,,0.01,1018.3,
79.76,945.73,0.01,9.66,0,,0.08,73.69,,-66.86,0.01,3.13,,66418.17,13834.76,28.60602,-80.74144,,,,,,,,,,,,0.01,1007.22,
80.76,936.47,0.01,9.66,0,,0.08,73.52,,-66.87,0.01,3.12,,67320.81,14097.93,28.60597,-80.74414,,,,,,,,,,,,0.01,996.2,
81.78,927.05,0,9.65,0,,0.08,73.34,,-66.88,0.01,3.11,,68231.56,14366.39,28.60592,-80.74688,,,,,,,,,,,,0.01,984.98,
82.8,917.64,0,9.64,0,,0.08,73.17,,-66.89,0.01,3.1,,69132.26,14634.89,28.60588,-80.74963,,,,,,,,,,,,0.01,973.73,
83.8,908.44,0,9.64,0,,0.08,72.99,,-66.9,0.01,3.09,,70005.56,14898.14,28.60583,-80.75233,,,,,,,,,,,,0.01,962.64,
84.8,899.24,0,9.63,0,,0.08,72.81,,-66.91,0.01,3.07,,70869.21,15161.42,28.60578,-80.75503,,,,,,,,,,,,0,951.44,
85.82,889.88,0,9.63,0,,0.08,72.63,,-66.92,0.02,3.06,,71740.21,15429.99,28.60573,-80.75778,,,,,,,,,,,,0,939.89,
86.82,880.71,0,9.62,0,,0.08,72.44,,-66.92,0.02,3.04,,72584.4,15693.33,28.60569,-80.76047,,,,,,,,,,,,0,928.42,
87.82,871.56,0,9.62,0,,0.08,72.25,,-66.93,0.02,3.02,,73418.96,15956.7,28.60564,-80.76317,,,,,,,,,,,,0,916.81,
88.84,862.24,0,9.62,0,,0.08,72.06,,-66.94,0.03,3,,74260.3,16225.36,28.60559,-80.76592,,,,,,,,,,,,0,904.98,
89.84,853.12,0,9.61,0,,0.08,71.86,,-66.95,0.03,2.98,,75075.42,16488.78,28.60554,-80.76862,,,,,,,,,,,,0,893.39,
90.84,844.01,0,9.61,0,,0.08,71.67,,-66.96,0.03,2.96,,75880.93,16752.22,28.6055,-80.77132,,,,,,,,,,,,0,881.75,
91.84,834.92,0,9.6,0,,0.08,71.47,,-66.97,0.04,2.94,,76676.83,17015.7,28.60545,-80.77402,,,,,,,,,,,,0,870.07,
92.84,825.84,0,9.6,0,,0.08,71.26,,-66.98,0.04,2.91,,77463.11,17279.2,28.6054,-80.77672,,,,,,,,,,,,0,858.4,
93.84,816.77,0,9.6,0,,0.08,71.05,,-66.98,0.05,2.89,,78239.79,17542.73,28.60536,-80.77942,,,,,,,,,,,,0,846.77,
94.84,807.73,0,9.59,0,,0.08,70.84,,-66.99,0.05,2.86,,79006.88,17806.29,28.60531,-80.78211,,,,,,,,,,,,0,835.21,
95.84,798.7,0,9.59,0,,0.08,70.63,,-67,0.06,2.84,,79764.36,18069.88,28.60526,-80.78481,,,,,,,,,,,,0,823.75,
96.84,789.68,0,9.59,0,,0.08,70.42,,-67.01,0.07,2.81,,80512.25,18333.49,28.60521,-80.78751,,,,,,,,,,,,0,812.4,
97.84,780.68,0,9.58,0,,0.08,70.2,,-67.02,0.08,2.78,,81250.55,18597.13,28.60517,-80.79021,,,,,,,,,,,,0,801.2,
98.86,771.52,0,9.58,0,,0.08,69.97,,-67.03,0.09,2.75,,81993.74,18866.07,28.60512,-80.79297,,,,,,,,,,,,0,789.92,
99.88,762.38,0,9.57,0,,0.08,69.74,,-67.03,0.1,2.72,,82726.95,19135.04,28.60507,-80.79572,,,,,,,,,,,,0,778.8,
100.9,753.26,0,9.57,0,,0.08,69.51,,-67.04,0.11,2.69,,83450.21,19404.04,28.60502,-80.79848,,,,,,,,,,,,0,767.85,
101.9,744.34,0,9.57,0,,0.08,69.28,,-67.05,0.13,2.67,,84149.6,19667.79,28.60498,-80.80118,,,,,,,,,,,,0,757.28,
102.92,735.25,0,9.57,0,,0.08,69.04,,-67.06,0.14,2.64,,84853.12,19936.85,28.60493,-80.80393,,,,,,,,,,,,0,746.66,
103.92,726.36,0,9.56,0,,0.08,68.81,,-67.07,0.16,2.61,,85533.18,20200.65,28.60488,-80.80664,,,,,,,,,,,,0,736.41,
104.92,717.5,0,9.56,0,,0.08,68.57,,-67.08,0.18,2.58,,86203.67,20464.48,28.60483,-80.80934,,,,,,,,,,,,0,726.3,
105.92,708.65,0,9.56,0,,0.08,68.33,,-67.09,0.2,2.55,,86864.6,20728.34,28.60479,-80.81204,,,,,,,,,,,,0,716.32,
106.92,699.82,0,9.56,0,,0.08,68.09,,-67.09,0.22,2.52,,87515.96,20992.22,28.60474,-80.81474,,,,,,,,,,,,0,706.47,
107.92,691.02,0,9.55,0,,0.08,67.84,,-67.1,0.25,2.49,,88157.75,21256.13,28.60469,-80.81745,,,,,,,,,,,,0,696.73,
108.92,682.24,0,9.55,0,,0.08,67.6,,-67.11,0.27,2.46,,88789.99,21520.06,28.60464,-80.82015,,,,,,,,,,,,0,687.12,
109.92,673.48,0,9.55,0,,0.08,67.35,,-67.12,0.3,2.43,,89412.68,21784.02,28.6046,-80.82285,,,,,,,,,,,,0,677.63,
110.92,664.75,0,9.55,0,,0.08,67.09,,-67.13,0.33,2.4,,90025.81,22048,28.60455,-80.82556,,,,,,,,,,,,0,668.25,
111.92,656.03,0,9.54,0,,0.08,66.84,,-67.14,0.36,2.37,,90629.39,22312.01,28.6045,-80.82826,,,,,,,,,,,,0,659,
112.92,647.35,0,9.54,0,,0.08,66.58,,-67.14,0.4,2.34,,91223.41,22576.04,28.60446,-80.83096,,,,,,,,,,,,0,649.84,
113.92,638.69,0,9.54,0,,0.08,66.33,,-67.15,0.44,2.31,,91807.89,22840.09,28.60441,-80.83367,,,,,,,,,,,,0,640.79,
114.94,629.89,0,9.54,0,,0.08,66.06,,-67.16,0.48,2.28,,92394.23,23109.45,28.60436,-80.83643,,,,,,,,,,,,0,631.66,
115.96,621.11,0,9.54,0,,0.08,65.79,,-67.17,0.53,2.24,,92970.64,23378.83,28.60431,-80.83919,,,,,,,,,,,,0,622.61,
116.96,612.54,0,9.53,0,,0.08,65.53,,-67.18,0.58,2.21,,93526.11,23642.96,28.60426,-80.84189,,,,,,,,,,,,0,613.84,
117.96,604,0,9.53,0,,0.08,65.27,,-67.19,0.63,2.18,,94072.03,23907.11,28.60422,-80.8446,,,,,,,,,,,,0,605.15,
118.98,595.32,0,9.53,0,,0.08,64.99,,-67.19,0.68,2.14,,94619.06,24176.56,28.60417,-80.84736,,,,,,,,,,,,0,596.36,
120,586.67,0,9.53,0,,0.08,64.72,,-67.2,0.74,2.11,,95156.16,24446.03,28.60412,-80.85012,,,,,,,,,,,,0,587.65,
121,578.23,0,9.53,0,,0.08,64.45,,-67.21,0.81,2.07,,95673.1,24710.25,28.60407,-80.85282,,,,,,,,,,,,0,579.17,
122.02,569.65,0,9.52,0,,0.08,64.17,,-67.22,0.88,2.04,,96190.56,24979.77,28.60402,-80.85558,,,,,,,,,,,,0,570.58,
123.04,561.12,0,9.52,0,,0.08,63.89,,-67.23,0.95,2,,96698.1,25249.31,28.60398,-80.85834,,,,,,,,,,,,0,562.04,
124.04,552.79,0,9.52,0,,0.08,63.62,,-67.24,1.03,1.97,,97186.07,25513.59,28.60393,-80.86105,,,,,,,,,,,,0,553.7,
125.06,544.33,0,9.52,0,,0.08,63.33,,-67.24,1.11,1.93,,97673.98,25783.17,28.60388,-80.86381,,,,,,,,,,,,0,545.24,
126.08,535.92,0,9.52,0,,0.08,63.05,,-67.25,1.2,1.9,,98151.99,26052.77,28.60383,-80.86657,,,,,,,,,,,,0,536.83,
127.1,527.56,0,9.52,0,,0.08,62.77,,-67.26,1.3,1.86,,98620.08,26322.4,28.60378,-80.86933,,,,,,,,,,,,0,528.46,
128.1,519.4,0,9.51,0,,0.08,62.48,,-67.27,1.39,1.83,,99069.38,26586.76,28.60374,-80.87204,,,,,,,,,,,,0,520.3,
129.1,511.3,0,9.51,0,,0.08,62.2,,-67.28,1.5,1.79,,99509.16,26851.13,28.60369,-80.87475,,,,,,,,,,,,0,512.19,
130.1,503.24,0,9.51,0,,0.08,61.92,,-67.28,1.61,1.76,,99939.42,27115.53,28.60364,-80.87745,,,,,,,,,,,,0,504.12,
131.1,495.24,0,9.51,0,,0.08,61.64,,-67.29,1.73,1.72,,100360.16,27379.94,28.60359,-80.88016,,,,,,,,,,,,0,496.11,
132.1,487.29,0,9.51,0,,0.08,61.35,,-67.3,1.85,1.69,,100771.39,27644.37,28.60355,-80.88287,,,,,,,,,,,,0,488.16,
133.1,479.4,0,9.51,0,,0.08,61.06,,-67.31,1.99,1.66,,101173.1,27908.82,28.6035,-80.88558,,,,,,,,,,,,0,480.26,
134.12,471.41,0,9.51,0,,0.08,60.77,,-67.32,2.13,1.63,,101573.05,28178.57,28.60345,-80.88834,,,,,,,,,,,,0,472.27,
135.14,463.49,0,9.51,0,,0.08,60.47,,-67.32,2.28,1.59,,101963.1,28448.34,28.6034,-80.8911,,,,,,,,,,,,0,464.34,
136.14,455.8,0,9.5,0,,0.08,60.18,,-67.33,2.44,1.56,,102335.89,28712.84,28.60336,-80.89381,,,,,,,,,,,,0,456.64,
137.14,448.17,0,9.5,0,,0.08,59.89,,-67.34,2.6,1.53,,102699.18,28977.35,28.60331,-80.89652,,,,,,,,,,,,0,449.01,
138.14,440.62,0,9.5,0,,0.08,59.6,,-67.35,2.78,1.5,,103052.95,29241.88,28.60326,-80.89923,,,,,,,,,,,,0,441.45,
139.14,433.14,0,9.5,0,,0.08,59.31,,-67.35,2.96,1.47,,103397.22,29506.43,28.60321,-80.90194,,,,,,,,,,,,0,433.96,
140.14,425.75,0,9.5,0,,0.08,59.02,,-67.36,3.16,1.44,,103731.98,29770.99,28.60317,-80.90465,,,,,,,,,,,,0,426.56,
141.14,418.44,0,9.5,0,,0.08,58.72,,-67.37,3.36,1.41,,104057.24,30035.56,28.60312,-80.90736,,,,,,,,,,,,0,419.24,
142.14,411.22,0,9.5,0,,0.08,58.42,,-67.38,3.58,1.38,,104373,30300.15,28.60307,-80.91007,,,,,,,,,,,,0,412.01,
143.16,403.96,0,9.5,0,,0.08,58.12,,-67.39,3.81,1.35,,104685.27,30570.05,28.60302,-80.91283,,,,,,,,,,,,0,404.74,
144.16,396.93,0,9.5,0,,0.08,57.82,,-67.39,4.06,1.33,,104981.83,30834.66,28.60297,-80.91554,,,,,,,,,,,,0,397.7,
145.18,389.88,0,9.49,0,,0.08,57.52,,-67.4,4.32,1.3,,105274.53,31104.58,28.60293,-80.91831,,,,,,,,,,,,0,390.64,
146.2,382.94,0,9.49,0,,0.08,57.22,,-67.41,4.59,1.27,,105557.35,31374.52,28.60288,-80.92107,,,,,,,,,,,,0,383.68,
147.22,376.13,0,9.49,0,,0.08,56.91,,-67.42,4.88,1.24,,105830.28,31644.47,28.60283,-80.92384,,,,,,,,,,,,0,376.85,
148.24,369.44,0,9.49,0,,0.08,56.6,,-67.42,5.19,1.22,,106093.33,31914.43,28.60278,-80.9266,,,,,,,,,,,,0,370.15,
149.24,363.01,0,9.49,0,,0.08,56.3,,-67.43,5.5,1.19,,106341.63,32179.1,28.60273,-80.92931,,,,,,,,,,,,0,363.71,
150.26,356.6,0,9.49,0,,0.08,55.99,,-67.44,5.84,1.17,,106585.11,32449.09,28.60268,-80.93208,,,,,,,,,,,,0,357.28,
151.26,350.46,0,9.49,0,,0.08,55.69,,-67.45,6.2,1.15,,106814.23,32713.79,28.60264,-80.93479,,,,,,,,,,,,0,351.12,
152.26,344.47,0,9.49,0,,0.08,55.38,,-67.45,6.57,1.12,,107033.85,32978.5,28.60259,-80.9375,,,,,,,,,,,,0,345.12,
153.28,338.52,0,9.49,0,,0.08,55.07,,-67.46,6.97,1.1,,107248.08,33248.51,28.60254,-80.94026,,,,,,,,,,,,0,339.15,
154.3,332.75,0,9.49,0,,0.08,54.76,,-67.47,7.39,1.08,,107452.43,33518.53,28.60249,-80.94303,,,,,,,,,,,,0,333.37,
155.32,327.17,0,9.49,0,,0.08,54.45,,-67.48,7.83,1.06,,107646.91,33788.57,28.60244,-80.9458,,,,,,,,,,,,0,327.76,
156.34,321.78,0,9.49,0,,0.08,54.13,,-67.48,8.3,1.04,,107831.5,34058.61,28.60239,-80.94856,,,,,,,,,,,,0,322.35,
157.34,316.69,0,9.49,0,,0.08,53.83,,-67.49,8.78,1.02,,108002.89,34323.36,28.60235,-80.95127,,,,,,,,,,,,0,317.24,
158.36,311.71,0,9.49,0,,0.08,53.51,,-67.5,9.3,1,,108167.93,34593.42,28.6023,-80.95404,,,,,,,,,,,,0,312.24,
159.36,307.05,0,9.49,0,,0.08,53.2,,-67.51,9.84,0.98,,108320.15,34858.19,28.60225,-80.95675,,,,,,,,,,,,0,307.55,
160.36,302.62,0,9.48,0,,0.08,52.89,,-67.51,10.41,0.96,,108462.87,35122.96,28.6022,-80.95946,,,,,,,,,,,,0,303.09,
161.38,298.33,0,9.48,0,,0.08,52.57,,-67.52,11.02,0.95,,108598.68,35393.04,28.60215,-80.96223,,,,,,,,,,,,0,298.78,
162.38,294.38,0,9.48,0,,0.08,52.26,,-67.53,11.65,0.93,,108722.23,35657.83,28.60211,-80.96494,,,,,,,,,,,,0,294.81,
163.4,290.62,0,9.48,0,,0.08,51.94,,-67.54,12.33,0.92,,108838.48,35927.92,28.60206,-80.9677,,,,,,,,,,,,0,291.01,
164.4,287.2,0,9.48,0,,0.08,51.63,,-67.54,13.03,0.91,,108942.86,36192.72,28.60201,-80.97042,,,,,,,,,,,,0,287.56,
165.4,284.05,0,9.48,0,,0.08,51.31,,-67.55,13.77,0.9,,109037.76,36457.52,28.60196,-80.97313,,,,,,,,,,,,0,284.38,
166.4,281.18,0,9.48,0,,0.08,51,,-67.56,14.54,0.89,,109123.16,36722.33,28.60191,-80.97584,,,,,,,,,,,,0,281.48,
167.4,278.61,0,9.48,0,,0.08,50.68,,-67.57,15.36,0.88,,109199.08,36987.14,28.60187,-80.97855,,,,,,,,,,,,0,278.88,
168.42,276.3,0,9.48,0,,0.08,50.36,,-67.57,16.24,0.87,,109266.73,37257.25,28.60182,-80.98132,,,,,,,,,,,,0,276.54,
169.42,274.35,0,9.48,0,,0.08,50.04,,-67.58,17.15,0.86,,109323.48,37522.07,28.60177,-80.98403,,,,,,,,,,,,0,274.55,
170.42,272.71,0,9.48,0,,0.08,49.73,,-67.59,18.11,0.86,,109370.74,37786.89,28.60172,-80.98674,,,,,,,,,,,,0,272.87,
171.44,271.37,0,9.48,0,,0.08,49.4,,-67.6,19.13,0.85,,109409.17,38057,28.60167,-80.98951,,,,,,,,,,,,0,271.5,
172.46,270.37,0,9.48,0,,0.08,49.08,,-67.61,20.21,0.85,,109437.73,38327.12,28.60162,-80.99228,,,,,,,,,,,,0,270.46,
173.48,269.71,0,9.48,0,,0.08,48.75,,-67.61,21.35,0.84,,109456.42,38597.24,28.60157,-80.99504,,,,,,,,,,,,0,269.76,
174.48,269.4,0,9.48,0,,0.08,48.43,,-67.62,22.52,0.84,,109465.16,38862.07,28.60153,-80.99775,,,,,,,,,,,,0,269.42,
175.5,269.42,0,9.48,0,,0.08,48.1,,-67.63,23.77,0.84,,109464.3,39132.19,28.60148,-81.00052,,,,,,,,,,,,0,269.4,
176.52,269.8,0,9.48,0,,0.08,47.77,,-67.64,25.09,0.84,,109453.56,39402.31,28.60143,-81.00329,,,,,,,,,,,,0,269.74,
177.52,270.5,0,9.48,0,,0.08,47.45,,-67.65,26.44,0.85,,109433.46,39667.14,28.60138,-81.006,,,,,,,,,,,,0,270.41,
178.54,271.55,0,9.48,0,,0.08,47.12,,-67.66,27.88,0.85,,109403.17,39937.26,28.60133,-81.00876,,,,,,,,,,,,0,271.42,
179.54,272.91,0,9.48,0,,0.08,46.79,,-67.67,29.35,0.86,,109363.9,40202.08,28.60128,-81.01148,,,,,,,,,,,,0,272.75,
180.54,274.6,0,9.48,0,,0.08,46.46,,-67.68,30.89,0.86,,109315.14,40466.9,28.60123,-81.01419,,,,,,,,,,,,0,274.4,
181.56,276.64,0,9.48,0,,0.08,46.13,,-67.69,32.52,0.87,,109255.63,40737.01,28.60119,-81.01696,,,,,,,,,,,,0,276.4,
182.56,278.95,0,9.48,0,,0.08,45.8,,-67.7,34.18,0.88,,109187.71,41001.82,28.60114,-81.01967,,,,,,,,,,,,0,278.68,
183.56,281.56,0,9.48,0,,0.08,45.47,,-67.71,35.9,0.89,,109110.29,41266.64,28.60109,-81.02238,,,,,,,,,,,,0,281.26,
184.58,284.52,0,9.48,0,,0.08,45.13,,-67.72,37.71,0.9,,109021.55,41536.74,28.60104,-81.02515,,,,,,,,,,,,0,284.19,
185.6,287.78,0,9.48,0,,0.08,44.79,,-67.73,39.58,0.91,,108922.94,41806.84,28.60099,-81.02791,,,,,,,,,,,,0,287.42,
186.62,291.32,0,9.48,0,,0.08,44.45,,-67.74,41.5,0.92,,108814.45,42076.93,28.60094,-81.03068,,,,,,,,,,,,0,290.93,
187.62,295.06,0,9.48,0,,0.08,44.12,,-67.75,43.43,0.93,,108698.51,42341.73,28.60089,-81.03339,,,,,,,,,,,,0,294.64,
188.64,299.14,0,9.48,0,,0.08,43.78,,-67.77,45.43,0.95,,108570.47,42611.81,28.60084,-81.03616,,,,,,,,,,,,0,298.69,
189.66,303.47,0,9.48,0,,0.08,43.43,,-67.78,47.47,0.96,,108432.56,42881.89,28.6008,-81.03892,,,,,,,,,,,,0,302.99,
190.66,307.95,0,9.48,0,,0.08,43.09,,-67.79,49.48,0.98,,108287.77,43146.66,28.60075,-81.04163,,,,,,,,,,,,0,307.45,
191.66,312.66,0,9.49,0,,0.08,42.75,,-67.81,51.52,1,,108133.48,43411.43,28.6007,-81.04434,,,,,,,,,,,,0,312.13,
192.66,317.57,0,9.49,0,,0.08,42.41,,-67.82,53.55,1.02,,107969.71,43676.19,28.60065,-81.04706,,,,,,,,,,,,0,317.02,
193.68,322.8,0,9.49,0,,0.08,42.05,,-67.83,55.63,1.04,,107792.88,43946.24,28.6006,-81.04982,,,,,,,,,,,,0,322.22,
194.68,328.12,0,9.49,0,,0.08,41.7,,-67.85,57.64,1.06,,107609.93,44210.98,28.60055,-81.05253,,,,,,,,,,,,0,327.52,
195.68,333.62,0,9.49,0,,0.08,41.34,,-67.86,59.63,1.08,,107417.48,44475.72,28.60051,-81.05524,,,,,,,,,,,,0,333.01,
196.7,339.42,0,9.49,0,,0.08,40.97,,-67.88,61.62,1.1,,107211.41,44745.74,28.60046,-81.05801,,,,,,,,,,,,0,338.78,
197.72,345.39,0,9.49,0,,0.08,40.59,,-67.9,63.56,1.12,,106995.46,45015.75,28.60041,-81.06077,,,,,,,,,,,,0,344.74,
198.74,351.52,0,9.49,0,,0.08,40.2,,-67.91,65.44,1.14,,106769.63,45285.75,28.60036,-81.06354,,,,,,,,,,,,0,350.85,
199.74,357.69,0,9.49,0,,0.08,39.81,,-67.93,67.22,1.17,,106538.64,45550.44,28.60031,-81.06625,,,,,,,,,,,,0,357,
200.76,364.12,0,9.49,0,,0.08,39.41,,-67.95,68.95,1.19,,106293.25,45820.42,28.60026,-81.06901,,,,,,,,,,,,0,363.42,
201.76,370.57,0,9.49,0,,0.08,39,,-67.97,70.58,1.22,,106043.08,46085.09,28.60021,-81.07173,,,,,,,,,,,,0,369.86,
202.78,377.28,0,9.49,0,,0.08,38.58,,-67.99,72.15,1.24,,105778.12,46355.04,28.60016,-81.07449,,,,,,,,,,,,0,376.55,
203.8,384.12,0,9.49,0,,0.08,38.15,,-68.01,73.63,1.27,,105503.28,46624.98,28.60011,-81.07725,,,,,,,,,,,,0,383.38,
204.82,391.08,0,9.49,0,,0.08,37.71,,-68.03,75.01,1.3,,105218.56,46894.91,28.60006,-81.08002,,,,,,,,,,,,0,390.32,
205.82,398.01,0,9.49,0,,0.08,37.27,,-68.05,76.28,1.33,,104929.82,47159.53,28.60001,-81.08273,,,,,,,,,,,,0,397.24,
206.84,405.18,0,9.49,0,,0.08,36.82,,-68.08,77.47,1.35,,104625.53,47429.43,28.59996,-81.08549,,,,,,,,,,,,0,404.41,
207.84,412.32,0,9.5,0,,0.08,36.36,,-68.1,78.55,1.38,,104317.6,47694.02,28.59992,-81.0882,,,,,,,,,,,,0,411.53,
208.86,419.7,0,9.5,0,,0.08,35.88,,-68.13,79.55,1.41,,103993.73,47963.88,28.59987,-81.09097,,,,,,,,,,,,0,418.9,
209.88,427.17,0,9.5,0,,0.08,35.4,,-68.15,80.46,1.44,,103659.97,48233.73,28.59982,-81.09373,,,,,,,,,,,,0,426.36,
210.88,434.57,0,9.5,0,,0.08,34.91,,-68.18,81.25,1.47,,103323.16,48498.28,28.59977,-81.09644,,,,,,,,,,,,0,433.75,
211.9,442.21,0,9.5,0,,0.08,34.41,,-68.21,81.97,1.5,,102969.82,48768.1,28.59972,-81.0992,,,,,,,,,,,,0,441.38,
212.9,449.78,0,9.5,0,,0.08,33.9,,-68.24,82.57,1.53,,102613.81,49032.6,28.59967,-81.10191,,,,,,,,,,,,0,448.94,
213.92,457.57,0,9.5,0,,0.08,33.37,,-68.27,83.09,1.56,,102240.88,49302.39,28.59962,-81.10467,,,,,,,,,,,,0,456.72,
214.94,465.43,0,9.5,0,,0.08,32.82,,-68.3,83.51,1.6,,101858.07,49572.15,28.59957,-81.10744,,,,,,,,,,,,0,464.58,
215.96,473.36,0,9.5,0,,0.08,32.26,,-68.34,83.82,1.63,,101465.36,49841.89,28.59952,-81.1102,,,,,,,,,,,,0,472.5,
216.96,481.2,0,9.5,0,,0.08,31.7,,-68.37,84.03,1.66,,101070.75,50106.33,28.59947,-81.11291,,,,,,,,,,,,0,480.33,
217.96,489.1,0,9.5,0,,0.08,31.11,,-68.41,84.14,1.69,,100666.63,50370.74,28.59942,-81.11561,,,,,,,,,,,,0,488.23,
218.96,497.05,0,9.5,0,,0.08,30.51,,-68.45,84.15,1.73,,100253,50635.13,28.59937,-81.11832,,,,,,,,,,,,0,496.17,
219.96,505.06,0,9.5,0,,0.08,29.89,,-68.49,84.05,1.76,,99829.86,50899.51,28.59933,-81.12103,,,,,,,,,,,,0,504.18,
220.96,513.12,0,9.51,0,,0.08,29.24,,-68.54,83.84,1.79,,99397.21,51163.86,28.59928,-81.12374,,,,,,,,,,,,0,512.23,
221.96,521.23,0,9.51,0,,0.08,28.57,,-68.58,83.52,1.83,,98955.05,51428.19,28.59923,-81.12644,,,,,,,,,,,,0,520.33,
222.98,529.54,0,9.51,0,,0.08,27.86,,-68.63,83.08,1.86,,98494.24,51697.78,28.59918,-81.1292,,,,,,,,,,,,0,528.65,
223.98,537.74,0,9.51,0,,0.08,27.13,,-68.68,82.51,1.9,,98032.86,51962.06,28.59913,-81.13191,,,,,,,,,,,,0,536.84,
225,546.15,0,9.51,0,,0.08,26.35,,-68.74,81.81,1.93,,97552.45,52231.6,28.59908,-81.13467,,,,,,,,,,,,0,545.24,
226,554.44,0,9.51,0,,0.08,25.55,,-68.79,80.98,1.97,,97071.86,52495.82,28.59903,-81.13738,,,,,,,,,,,,0,553.52,
227,562.76,0,9.51,0,,0.08,24.71,,-68.85,80,2,,96581.74,52760.03,28.59898,-81.14008,,,,,,,,,,,,0,561.84,
228.02,571.28,0,9.51,0,,0.08,23.8,,-68.92,78.86,2.04,,96072.02,53029.48,28.59893,-81.14284,,,,,,,,,,,,0,570.36,
229.02,579.68,0,9.51,0,,0.08,22.86,,-68.98,77.57,2.07,,95562.69,53293.63,28.59888,-81.14555,,,,,,,,,,,,0,578.77,
230.02,588.1,0,9.51,0,,0.08,21.86,,-69.05,76.12,2.11,,95043.84,53557.74,28.59883,-81.14825,,,,,,,,,,,,0,587.22,
231.04,596.73,0,9.51,0,,0.08,20.78,,-69.12,74.46,2.14,,94504.81,53827.11,28.59878,-81.15101,,,,,,,,,,,,0,595.91,
232.06,605.39,0,9.51,0,,0.08,19.62,,-69.19,72.61,2.18,,93955.88,54096.44,28.59873,-81.15377,,,,,,,,,,,,0,604.66,
233.08,614.08,0,9.5,0,,0.08,18.38,,-69.27,70.56,2.21,,93397.06,54365.73,28.59868,-81.15653,,,,,,,,,,,,0,613.5,
234.08,622.63,0,9.5,0,,0.08,17.07,,-69.35,68.36,2.24,,92839.58,54629.71,28.59864,-81.15923,,,,,,,,,,,,0,622.23,
235.1,631.37,0,9.5,0,,0.08,15.63,,-69.43,65.91,2.27,,92261.15,54898.94,28.59859,-81.16199,,,,,,,,,,,,0,631.23,
236.1,639.96,0,9.5,0,,0.08,14.1,,-69.51,63.33,2.31,,91684.46,55162.84,28.59854,-81.16469,,,,,,,,,,,,0,640.14,
237.1,648.58,0,9.5,0,,0.08,12.45,,-69.58,60.56,2.34,,91098.26,55426.7,28.59849,-81.16739,,,,,,,,,,,,0,649.14,
238.12,657.39,0,9.49,0,,0.08,10.61,,-69.66,57.56,2.37,,90490.54,55695.8,28.59844,-81.17015,,,,,,,,,,,,0,658.41,
239.12,666.05,0.01,9.49,0,,0.08,8.64,,-69.73,54.48,2.4,,89885.13,55959.58,28.59839,-81.17285,,,,,,,,,,,,0,667.6,
240.14,674.9,0.01,9.49,0,,0.08,6.44,,-69.79,51.22,2.43,,89257.83,56228.58,28.59834,-81.1756,,,,,,,,,,,,0,677.09,
241.14,683.6,0.01,9.48,0,,0.08,4.07,,-69.84,47.94,2.46,,88633.23,56492.26,28.59829,-81.1783,,,,,,,,,,,,0,686.49,
242.16,692.48,0.01,9.48,0,,0.08,1.41,,-69.87,44.56,2.49,,87986.36,56761.16,28.59824,-81.18106,,,,,,,,,,,,0,696.21,
243.16,701.21,0.01,9.47,0,,0.08,-1.47,,-69.87,41.23,2.52,,87342.58,57024.74,28.59819,-81.18376,,,,,,,,,,,,0,705.84,
244.16,709.95,0.01,9.47,0,,0.08,-4.65,,-69.84,37.95,2.55,,86689.32,57288.26,28.59814,-81.18645,,,,,,,,,,,,0,715.58,
245.18,718.88,0.01,9.46,0,,0.08,-8.24,,-69.77,34.68,2.58,,86013.22,57556.99,28.59809,-81.18921,,,,,,,,,,,,0,725.63,
246.2,727.82,0.01,9.46,0,,0.08,-12.22,,-69.64,31.51,2.61,,85327.26,57825.66,28.59804,-81.19196,,,,,,,,,,,,0,735.81,
247.22,736.78,0.01,9.45,0,,0.08,-16.64,,-69.44,28.47,2.63,,84631.44,58094.26,28.59799,-81.19471,,,,,,,,,,,,0,746.12,
248.22,745.57,0.01,9.45,0,,0.08,-21.42,,-69.15,25.63,2.66,,83939.7,58357.52,28.59794,-81.1974,,,,,,,,,,,,0,756.39,
249.24,754.56,0.01,9.45,0,,0.08,-26.8,,-68.73,22.86,2.69,,83224.37,58625.99,28.59789,-81.20015,,,,,,,,,,,,0,767.01,
250.24,763.4,0.01,9.47,0,,0.08,-32.55,,-68.19,20.28,2.72,,82513.51,58889.13,28.59784,-81.20285,,,,,,,,,,,,0,777.59,
251.26,772.46,0.01,9.49,0,,0.08,-38.82,,-67.45,17.8,2.75,,81778.66,59157.47,28.59779,-81.2056,,,,,,,,,,,,0,788.57,
252.28,781.55,0.01,9.5,0,,0.08,-45.46,,-66.47,15.44,2.78,,81033.95,59425.77,28.59774,-81.20834,,,,,,,,,,,,0,799.72,
253.28,790.49,0.01,9.52,0,,0.08,-52.28,,-65.18,13.2,2.8,,80294.24,59688.77,28.59769,-81.21104,,,,,,,,,,,,0,810.82,
254.28,799.45,0,9.53,0,,0.08,-59.35,,-63.37,10.99,2.83,,79545.02,59951.73,28.59765,-81.21373,,,,,,,,,,,,0,822.05,
255.28,808.44,0,9.54,0,,0.08,-66.6,,-60.62,8.76,2.86,,78786.29,60214.64,28.5976,-81.21642,,,,,,,,,,,,0,833.4,
256.28,817.44,0,9.55,0,,0.08,-73.86,,-55.81,6.47,2.88,,78018.03,60477.5,28.59755,-81.21911,,,,,,,,,,,,0,844.85,
257.28,826.46,0.01,9.55,0,,0.08,-80.83,,-44.62,4.08,2.91,,77240.25,60740.31,28.5975,-81.22181,,,,,,,,,,,,0,856.35,
258.3,835.64,0.01,9.55,0,,0.08,-86.16,,3.82,1.52,2.93,,76437.11,61008.29,28.59745,-81.22455,,,,,,,,,,,,0,868.09,
259.3,844.63,0.01,9.53,0,,0.08,-83.67,,79.36,-1.12,2.95,,75640.09,61270.9,28.5974,-81.22724,,,,,,,,,,,,0,879.55,
260.3,853.59,0.02,9.5,0,,0.08,-78.62,,97.3,-3.84,2.97,,74833.57,61533.38,28.59735,-81.22993,,,,,,,,,,,,0,890.91,
261.3,862.51,0.03,9.45,0,,0.08,-74.36,,104.48,-6.51,2.99,,74017.57,61795.67,28.5973,-81.23261,,,,,,,,,,,,0,902.14,
262.3,871.37,0.04,9.4,0,,0.08,-71.54,,109.35,-8.92,3.01,,73192.12,62057.73,28.59725,-81.2353,,,,,,,,,,,,0,913.3,
263.3,880.18,0.04,9.36,0,,0.08,-70.56,,114.14,-10.8,3.03,,72357.26,62319.52,28.5972,-81.23798,,,,,,,,,,,,0,924.33,
264.3,888.96,0.05,9.35,0,,0.08,-71.68,,120.44,-11.9,3.04,,71513.01,62581.01,28.59715,-81.24066,,,,,,,,,,,,0,935.15,
265.32,897.96,0.05,9.39,0,,0.08,-74.97,,131.37,-12.03,3.06,,70642.23,62847.39,28.5971,-81.24338,,,,,,,,,,,,0,946.06,
266.32,906.86,0.04,9.47,0,,0.08,-79.33,,155.44,-11.17,3.07,,69779.02,63108.22,28.59705,-81.24605,,,,,,,,,,,,0.01,956.73,
267.32,915.86,0.03,9.53,0,,0.08,-80.4,,-152.22,-9.45,3.08,,68906.36,63368.77,28.597,-81.24872,,,,,,,,,,,,0.01,967.44,
268.34,925.14,0.01,9.55,0,,0.08,-73.77,,-112.74,-6.92,3.09,,68006.49,63634.33,28.59695,-81.25144,,,,,,,,,,,,0.01,978.44,
269.34,934.27,0.02,9.5,0,,0.08,-64.33,,-97.42,-3.76,3.1,,67114.68,63894.59,28.59691,-81.25411,,,,,,,,,,,,0.01,989.23,
270.34,943.32,0.04,9.32,0,,0.08,-55.45,,-89.94,-0.07,3.11,,66213.45,64154.86,28.59686,-81.25677,,,,,,,,,,,,0.01,999.94,
271.34,952.2,0.07,9.08,0,,0.08,-49.37,,-85.39,3.76,3.12,,65302.93,64415.29,28.59682,-81.25944,,,,,,,,,,,,0.01,1010.43,
272.34,960.91,0.09,8.9,0,,0.08,-47.9,,-82.1,6.85,3.13,,64383.27,64676.02,28.59677,-81.26211,,,,,,,,,,,,0.01,1020.78,
273.36,969.78,0.1,8.94,0,,0.08,-52.3,,-79.25,8.22,3.14,,63435.92,64942.32,28.59672,-81.26484,,,,,,,,,,,,0.01,1031.28,
274.38,978.83,0.06,9.22,0,,0.08,-62.46,,-76.53,7.37,3.15,,62479.13,65208.97,28.59667,-81.26757,,,,,,,,,,,,0.02,1041.97,
275.38,987.93,0.02,9.51,0,,0.08,-76.04,,-74.3,4.64,3.16,,61531.74,65470.52,28.59662,-81.27025,,,,,,,,,,,,0.02,1052.76,
276.4,997.18,0.07,9.55,0,,0.08,-89.14,,-123.11,0.44,3.17,,60555.72,65737.13,28.59656,-81.27298,,,,,,,,,,,,0.02,1063.72,
277.4,1005.89,0.14,9.39,0,,0.08,-82.37,,128.8,-3.93,3.18,,59589.34,65997.87,28.59651,-81.27565,,,,,,,,,,,,0.02,1073.9,
278.42,1014.57,0.16,9.36,0,,0.08,-81.92,,156.62,-6.46,3.19,,58594.07,66262.74,28.59646,-81.27836,,,,,,,,,,,,0.03,1083.9,
279.42,1023.4,0.08,9.51,0,,0.08,-79.06,,-128.91,-5.59,3.2,,57608.95,66521.4,28.59641,-81.28101,,,,,,,,,,,,0.03,1094.18,
280.44,1032.69,0.06,9.3,0,,0.08,-65.91,,-97.78,-1.73,3.21,,56594.5,66784.85,28.59637,-81.28371,,,,,,,,,,,,0.04,1105.34,
281.44,1041.36,0.2,8.49,0,,0.08,-57.36,,-87.97,3.15,3.22,,55590.77,67043.48,28.59632,-81.28635,,,,,,,,,,,,0.04,1115.94,
282.46,1049.88,0.21,8.53,0,,0.08,-62.03,,-83,5.56,3.23,,54558.12,67308.31,28.59628,-81.28907,,,,,,,,,,,,0.05,1126.38,
283.48,1059,0.05,9.42,0,,0.08,-78.46,,-84.15,3.16,3.24,,53516.36,67573.86,28.59622,-81.29179,,,,,,,,,,,,0.05,1137.86,
284.48,1067.75,0.22,9.55,0,,0.08,-85.75,,159.56,-2.02,3.26,,52485.7,67833.78,28.59617,-81.29445,,,,,,,,,,,,0.06,1149.37,
285.48,1075.96,0.26,9.53,0,,0.08,-82.66,,-159.9,-4.83,3.27,,51445.85,68092.01,28.59612,-81.29709,,,,,,,,,,,,0.07,1160.53,
286.5,1085.06,0.08,9.21,0,,0.08,-69.36,,-101.17,-1.66,3.29,,50375.78,68354.1,28.59607,-81.29978,,,,,,,,,,,,0.08,1173.81,
287.5,1093.37,0.35,8.09,0,,0.08,-62.07,,-88.3,3.54,3.32,,49317.81,68611.62,28.59603,-81.30241,,,,,,,,,,,,0.09,1187.08,
288.52,1102.03,0.13,9.1,0,,0.08,-77.16,,-88.51,2.91,3.34,,48230.21,68875.75,28.59597,-81.30512,,,,,,,,,,,,0.1,1201.67,
289.52,1110.45,0.4,9.89,0,,0.08,-84.85,,179.23,-2.61,3.37,,47154.9,69134.26,28.59592,-81.30776,,,,,,,,,,,,0.12,1217.4,
290.54,1118.91,0.16,9.38,0,,0.08,-75.02,,-110.71,-2.56,3.41,,46048.81,69395.52,28.59587,-81.31044,,,,,,,,,,,,0.13,1234.03,
291.54,1127.05,0.52,8.07,0,,0.08,-65.36,,-90.23,2.95,3.45,,44955.68,69651.7,28.59583,-81.31306,,,,,,,,,,,,0.16,1251.76,
292.56,1135.59,0.15,9.4,0,,0.08,-83.51,,-109.72,0.71,3.49,,43832.55,69914.83,28.59577,-81.31576,,,,,,,,,,,,0.18,1271.05,
293.58,1143.48,0.48,10.14,0,,0.08,-79.75,,-125.34,-2.94,3.53,,42700.29,70175.99,28.59572,-81.31843,,,,,,,,,,,,0.21,1290.67,
294.6,1151.61,0.67,8.38,0,,0.08,-67.74,,-92.02,2.48,3.57,,41559.19,70436.01,28.59568,-81.32109,,,,,,,,,,,,0.24,1312.13,
295.6,1159.53,0.43,10.03,0,,0.08,-84.61,,-136.85,-0.81,3.62,,40432.83,70692.83,28.59562,-81.32372,,,,,,,,,,,,0.28,1333.79,
296.62,1167.2,0.22,8.17,0,,0.08,-71.54,,-101.46,-0.35,3.66,,39275.24,70951.88,28.59558,-81.32638,,,,,,,,,,,,0.33,1355.96,
297.62,1174.37,0.28,8.18,0,,0.08,-81.15,,-105.51,0.92,3.7,,38133,71207.1,28.59553,-81.32899,,,,,,,,,,,,0.38,1378,
298.62,1181.29,0.34,8.42,0,,0.08,-74.09,,-105.52,-0.85,3.75,,36983.09,71460.54,28.59548,-81.33159,,,,,,,,,,,,0.44,1400.45,
299.64,1188.02,0.31,7.96,0,,0.08,-82.41,,-115.41,0.11,3.79,,35803.15,71719.53,28.59543,-81.33424,,,,,,,,,,,,0.52,1423.61,
300.66,1194.22,0.72,7.47,0,,0.08,-71.75,,-97.9,1.04,3.83,,34615.95,71976.41,28.59538,-81.33687,,,,,,,,,,,,0.62,1446.6,
301.66,1199.77,1.15,13.32,0,,0.08,-80.5,,-122.16,-1.59,3.87,,33446.04,72228.85,28.59533,-81.33945,,,,,,,,,,,,0.73,1468.44,
302.68,1205.18,0.54,6.16,0,,0.08,-81.3,,-112.58,0.14,3.91,,32246.68,72484.78,28.59528,-81.34207,,,,,,,,,,,,0.87,1490.69,
303.68,1209.49,1.25,9.94,0,,0.08,-75.93,,-99.62,1.23,3.95,,31065.56,72734.24,28.59523,-81.34463,,,,,,,,,,,,1.03,1511.42,
304.68,1213.23,0.84,5.14,0,,0.08,-74.62,,-100.6,0.79,3.98,,29880.08,72982.83,28.59519,-81.34717,,,,,,,,,,,,1.22,1531.4,
305.7,1216.05,0.77,2.82,0,,0.08,-75.25,,-102.09,0.53,4.01,,28667.24,73235.15,28.59514,-81.34976,,,,,,,,,,,,1.47,1544.23,
306.7,1217.64,0.92,2.17,0,,0.08,-75.95,,-102.44,0.58,4.04,,27475.6,73480.97,28.59509,-81.35228,,,,,,,,,,,,1.75,1545.88,
307.7,1217.9,1.28,6.23,0,,0.08,-77.65,,-104.02,0.58,4.06,,26282.62,73725.09,28.59504,-81.35478,,,,,,,,,,,,2.1,1546.27,
308.72,1216.55,1.22,3.34,0,,0.08,-79.97,,-111.83,-0.2,4.08,,25065.91,73972,28.59499,-81.3573,,,,,,,,,,,,2.53,1545.15,
309.72,1213.24,1.5,8.57,0,,0.08,-77.94,,-107.52,-0.08,4.09,,23874.88,74211.35,28.59494,-81.35975,,,,,,,,,,,,3.04,1542.2,
310.72,1207.61,1.68,6.99,0,,0.08,-79.3,,-108.99,0.02,4.09,,22687.86,74448.12,28.59489,-81.36218,,,,,,,,,,,,3.65,1537.11,
311.72,1199.24,1.92,9.76,0,,0.08,-78.35,,-106.82,0.13,4.09,,21507.27,74681.45,28.59485,-81.36457,,,,,,,,,,,,4.4,1529.43,
312.72,1187.67,2.27,13.09,0,,0.08,-78.68,,-107.91,0,4.08,,20336.08,74911.04,28.5948,-81.36692,,,,,,,,,,,,5.3,1518.72,
313.74,1172.05,2.66,16.75,0,,0.08,-78.86,,-107.97,0.02,4.05,,19154.66,75140.59,28.59475,-81.36927,,,,,,,,,,,,6.41,1504.15,
314.74,1152.56,3.1,20.9,0,,0.08,-79.06,,-108.1,0.03,4.01,,18013.29,75360.4,28.59471,-81.37152,,,,,,,,,,,,7.71,1485.84,
315.74,1128.65,3.55,25.32,0,,0.08,-79.25,,-108.46,-0.01,3.93,,16892.89,75574.23,28.59466,-81.37371,,,,,,,,,,,,9.27,1431.34,
316.74,1100.3,4,29.71,0,,0.08,-79.31,,-108.31,0.01,3.83,,15797.84,75781.31,28.59462,-81.37583,,,,,,,,,,,,11.08,1357.74,
317.76,1067.1,4.42,33.81,0,,0.08,-79.41,,-108.34,0,3.69,,14711.43,75984.8,28.59458,-81.37791,,,,,,,,,,,,13.22,1271.24,
318.76,1030.84,4.78,37.33,0,,0.08,-79.52,,-108.35,0,3.53,,13680.2,76176.07,28.59454,-81.37987,,,,,,,,,,,,15.59,1184.54,
319.76,991.43,5.09,40.32,0,,0.08,-79.63,,-108.34,0,3.36,,12685.91,76358.63,28.5945,-81.38174,,,,,,,,,,,,18.23,1101.15,
320.78,948.58,5.33,42.72,0,,0.08,-79.74,,-108.32,0,3.18,,11712.72,76535.42,28.59446,-81.38355,,,,,,,,,,,,21.19,1021.89,
321.8,903.79,5.51,44.41,0,,0.08,-79.86,,-108.29,0,3,,10783.25,76702.39,28.59442,-81.38526,,,,,,,,,,,,24.38,949.68,
322.8,858.69,5.6,45.38,0,,0.08,-79.97,,-108.26,0,2.81,,9916,76856.37,28.59438,-81.38684,,,,,,,,,,,,27.73,885.96,
323.8,813.09,5.64,45.68,0,,0.08,-80.1,,-108.23,0,2.63,,9093.15,77000.71,28.59435,-81.38832,,,,,,,,,,,,31.24,828.62,
324.82,766.71,5.6,45.37,0,,0.08,-80.23,,-108.19,0,2.46,,8299.79,77138.08,28.59431,-81.38972,,,,,,,,,,,,34.97,775.6,
325.82,721.93,5.52,44.52,0,,0.08,-80.36,,-108.15,0,2.29,,7566.64,77263.29,28.59428,-81.39101,,,,,,,,,,,,38.73,727.81,
326.82,678.32,5.39,43.23,0,,0.08,-80.5,,-108.11,0,2.13,,6876.79,77379.42,28.59425,-81.39219,,,,,,,,,,,,42.56,683.15,
327.82,636.27,5.22,41.56,0,,0.08,-80.65,,-108.06,0,1.99,,6228.92,77486.83,28.59422,-81.39329,,,,,,,,,,,,46.44,640.81,
328.84,595.57,4.97,39.1,0,,0.08,-80.81,,-108.02,0,1.85,,5609.53,77587.83,28.5942,-81.39433,,,,,,,,,,,,50.42,599.82,
329.84,558.71,4.64,35.91,0,,0.08,-80.97,,-107.97,0,1.72,,5040.3,77679.04,28.59417,-81.39526,,,,,,,,,,,,54.31,562.61,
330.84,525.15,4.31,32.62,0,,0.08,-81.14,,-107.92,0,1.61,,4505.56,77763.15,28.59415,-81.39612,,,,,,,,,,,,58.19,528.69,
331.84,494.65,4.01,29.73,0,,0.08,-81.31,,-107.87,0,1.5,,4002.16,77840.8,28.59413,-81.39692,,,,,,,,,,,,62.05,497.88,
332.84,466.45,3.81,27.69,0,,0.08,-81.49,,-107.81,0,1.41,,3527.44,77912.51,28.5941,-81.39765,,,,,,,,,,,,65.89,469.46,
333.86,438.37,3.85,28.15,0,,0.08,-81.69,,-107.76,0,1.32,,3071.08,77979.93,28.59408,-81.39834,,,,,,,,,,,,69.76,441.51,
334.86,406.93,4.35,33.04,0,,0.08,-81.88,,-107.7,0,1.22,,2652.66,78040.3,28.59406,-81.39896,,,,,,,,,,,,73.47,410.63,
335.86,372.09,4.54,34.89,0,,0.08,-82.09,,-107.65,0,1.12,,2267.27,78094.52,28.59405,-81.39952,,,,,,,,,,,,77.05,375.88,
336.86,343,3.54,25.08,0,,0.08,-82.31,,-107.59,0,1.02,,1914.38,78142.83,28.59403,-81.40001,,,,,,,,,,,,80.45,345.53,
337.86,326.83,2.33,13.21,0,,0.08,-82.54,,-107.53,0,0.97,,1583.41,78186.81,28.59402,-81.40046,,,,,,,,,,,,83.76,328.16,
338.86,317.8,1.78,7.82,0,,0.08,-82.77,,-107.47,0,0.94,,1264.19,78227.92,28.594,-81.40088,,,,,,,,,,,,87.05,318.6,
339.88,311.79,1.53,5.45,0,,0.08,-83,,-107.41,0,0.92,,945.81,78267.62,28.59399,-81.40129,,,,,,,,,,,,90.45,312.35,
340.88,307.23,1.43,4.48,0,,0.08,-83.23,,-107.34,0,0.9,,638.64,78304.68,28.59397,-81.40167,,,,,,,,,,,,93.84,307.7,
341.9,303.11,1.39,4.1,0,,0.08,-83.45,,-107.27,0,0.89,,329.53,78340.75,28.59396,-81.40204,,,,,,,,,,,,97.35,303.54,
