Time,Surface Speed (m/s),GForce (g),Acceleration (m/s^2),Thrust (kN),TWR,Mass (t),Pitch (deg),Heading (deg),Roll (deg),Angle of Attack (deg),Mach number,Altitude from Terrain (m),Altitude from the Sea (m),Downrange Distance (m),Latitude (deg),Longitude (deg),Apoapsis (m),Periapsis (m),Time to Apoapsis (s),Time to Periapsis (s),Inclination (deg),Orbital Velocity (m/s),Gravity (m/s^2),Target Distance (m),Target Speed (m/s),Stage DeltaV (m/s),Vessel DeltaV (m/s),Pressure (kPa),External Temperature (K),
1,116.81,12.53,113.22,52.33,,0.41,80.62,,-95.5,0.03,0.3,,159.06,9.62,28.60838,-80.59985,,,,,,,,,,,,99.49,293.95,
2.02,237.43,13.26,120.35,52.42,,0.38,80.13,,-88.08,0,0.65,,337.76,40.03,28.60834,-80.60016,,,,,,,,,,,,97.43,293.01,
3.02,357.19,12.96,117.5,52.55,,0.35,79.85,,-80.03,0,1.01,,632.3,92.12,28.60827,-80.60069,,,,,,,,,,,,94.1,344.6,
4.04,465.16,11.87,106.81,52.71,,0.33,79.67,,-76.43,0,1.33,,1046.02,166.97,28.60818,-80.60145,,,,,,,,,,,,89.58,453.2,
5.04,576.34,12.27,110.72,52.84,,0.3,79.55,,-73.71,0,1.66,,1559.39,261.22,28.60806,-80.6024,,,,,,,,,,,,84.23,564.22,
6.04,684.02,11.82,106.3,52.95,,0.27,79.48,,-66.62,0,2,,2180.46,376.24,28.60792,-80.60357,,,,,,,,,,,,78.11,672.39,
7.04,721.21,5.46,63.18,0,,0.26,79.43,,-53.42,0,2.18,,2893.2,508.92,28.60776,-80.60492,,,,,,,,,,,,71.56,731.26,
8.04,657.38,4.27,51.5,0,,0.16,79.32,,-49.64,0,1.99,,3566.36,635.02,28.60761,-80.6062,,,,,,,,,,,,65.78,662.88,
9.04,628.65,0.7,16.57,4.58,,0.16,79.14,,-46.63,0,1.91,,4194.05,754.36,28.60747,-80.60741,,,,,,,,,,,,60.76,630.41,
10.04,614.7,0.34,13.08,4.57,,0.16,78.97,,-45.15,0,1.88,,4804,872.25,28.60733,-80.60861,,,,,,,,,,,,56.19,616.08,
11.04,603.87,0.04,10.16,4.57,,0.15,78.78,,-44.39,0,1.85,,5401.49,989.69,28.60719,-80.6098,,,,,,,,,,,,52,604.93,
12.06,595.55,0.22,7.66,4.57,,0.15,78.59,,-43.97,0,1.84,,6001,1109.57,28.60705,-80.61102,,,,,,,,,,,,48.05,596.33,
13.06,589.71,0.44,5.59,4.56,,0.15,78.39,,-43.74,0,1.84,,6581.48,1227.69,28.60691,-80.61222,,,,,,,,,,,,44.47,590.25,
14.06,585.85,0.64,3.88,4.56,,0.15,78.19,,-43.6,0,1.84,,7156.83,1346.83,28.60677,-80.61343,,,,,,,,,,,,41.14,586.19,
15.06,583.76,0.81,2.62,4.55,,0.15,77.99,,-43.52,0,1.84,,7728.88,1467.39,28.60663,-80.61465,,,,,,,,,,,,38.03,583.91,
16.1,583.24,0.97,2.11,4.55,,0.14,77.77,,-43.47,0,1.86,,8322.04,1594.66,28.60648,-80.61594,,,,,,,,,,,,35.01,583.22,
17.12,584.22,1.11,2.55,4.55,,0.14,77.55,,-43.44,0,1.87,,8903.58,1721.72,28.60632,-80.61723,,,,,,,,,,,,32.24,584.05,
18.14,586.56,1.25,3.46,4.54,,0.14,77.34,,-43.42,0,1.9,,9486.3,1851.34,28.60617,-80.61855,,,,,,,,,,,,29.66,586.24,
19.14,590.1,1.37,4.48,4.54,,0.14,77.12,,-43.41,0,1.92,,10060,1981.24,28.60602,-80.61987,,,,,,,,,,,,27.28,589.65,
20.14,594.81,1.49,5.54,4.54,,0.14,76.9,,-43.4,0,1.95,,10637.23,2114.23,28.60586,-80.62122,,,,,,,,,,,,25.05,594.24,
21.16,600.81,1.6,6.64,4.54,,0.13,76.67,,-43.39,0,1.99,,11230.81,2253.4,28.60569,-80.62263,,,,,,,,,,,,22.91,600.11,
22.18,607.99,1.72,7.75,4.53,,0.13,76.45,,-43.39,0,2.03,,11830.38,2396.44,28.60552,-80.62408,,,,,,,,,,,,20.92,607.16,
23.18,616.17,1.83,8.84,4.53,,0.13,76.23,,-43.39,0,2.07,,12425.13,2540.78,28.60535,-80.62555,,,,,,,,,,,,19.09,615.23,
24.18,625.47,1.95,9.92,4.53,,0.13,76,,-43.38,0,2.11,,13027.8,2689.5,28.60518,-80.62706,,,,,,,,,,,,17.38,624.45,
25.2,636.09,2.06,11.03,4.53,,0.13,75.78,,-43.38,0,2.17,,13651.78,2846.07,28.60499,-80.62865,,,,,,,,,,,,15.76,635.07,
26.22,647.87,2.18,12.14,4.53,,0.12,75.55,,-43.38,0,2.22,,14286.22,3007.9,28.6048,-80.63029,,,,,,,,,,,,14.24,646.96,
27.22,660.54,2.29,13.25,4.53,,0.12,75.33,,-43.38,0,2.27,,14919.43,3172.03,28.6046,-80.63196,,,,,,,,,,,,12.86,659.91,
28.22,674.34,2.4,14.37,4.53,,0.12,75.11,,-43.38,0,2.33,,15564.82,3341.95,28.6044,-80.63368,,,,,,,,,,,,11.59,674.23,
29.22,689.3,2.52,15.53,4.52,,0.12,74.89,,-43.38,0,2.39,,16223.45,3518.02,28.60419,-80.63547,,,,,,,,,,,,10.41,689.97,
30.24,705.79,2.65,16.75,4.52,,0.12,74.67,,-43.38,0,2.45,,16910.04,3704.36,28.60397,-80.63736,,,,,,,,,,,,9.3,707.59,
31.24,723.19,2.77,17.97,4.52,,0.11,74.46,,-43.38,0,2.51,,17598.82,3894.07,28.60375,-80.63929,,,,,,,,,,,,8.31,726.48,
32.24,741.84,2.9,19.22,4.52,,0.11,74.25,,-43.38,0,2.57,,18304.25,4091.16,28.60351,-80.64129,,,,,,,,,,,,7.4,747.06,
33.26,762.17,3.03,20.5,4.52,,0.11,74.03,,-43.38,0,2.63,,19042.17,4300.23,28.60327,-80.64342,,,,,,,,,,,,6.57,769.93,
34.28,783.82,3.16,21.8,4.52,,0.11,73.83,,-43.38,0,2.69,,19799.9,4517.91,28.60301,-80.64563,,,,,,,,,,,,5.81,794.83,
35.28,806.35,3.29,23.08,4.52,,0.11,73.62,,-43.38,0,2.75,,20563.22,4740.13,28.60275,-80.64788,,,,,,,,,,,,5.14,821.4,
36.28,830.16,3.42,24.37,4.52,,0.1,73.42,,-43.38,0,2.82,,21347.98,4971.53,28.60247,-80.65023,,,,,,,,,,,,4.54,850.38,
37.28,855.27,3.55,25.66,4.52,,0.1,73.23,,-43.38,0,2.89,,22155.38,5212.59,28.60219,-80.65268,,,,,,,,,,,,4,882.07,
38.28,881.69,3.68,26.97,4.52,,0.1,73.04,,-43.38,0,2.97,,22986.64,5463.79,28.60189,-80.65523,,,,,,,,,,,,3.51,916.77,
39.3,910,3.82,28.31,4.52,,0.1,72.85,,-43.38,0,3.05,,23860.34,5730.95,28.60157,-80.65794,,,,,,,,,,,,3.06,955.59,
40.32,939.7,3.96,29.68,4.52,,0.1,72.66,,-43.38,0,3.14,,24761.41,6009.7,28.60124,-80.66077,,,,,,,,,,,,2.67,998.28,
41.32,970.19,4.1,31.05,4.52,,0.09,72.48,,-43.38,0,3.23,,25672.67,6294.73,28.60091,-80.66367,,,,,,,,,,,,2.32,1044.32,
42.34,1002.73,4.24,32.48,4.52,,0.09,72.3,,-43.38,0,3.32,,26631.88,6598.02,28.60055,-80.66675,,,,,,,,,,,,2,1096.01,
43.34,1036.07,4.39,33.91,4.52,,0.09,72.13,,-43.38,0,3.42,,27602.75,6908.19,28.60018,-80.6699,,,,,,,,,,,,1.73,1151.8,
44.36,1071.57,4.54,35.4,4.52,,0.09,71.96,,-43.38,0,3.52,,28625.48,7238.24,28.59979,-80.67325,,,,,,,,,,,,1.49,1214.4,
45.38,1108.64,4.69,36.94,4.52,,0.09,71.79,,-43.38,0,3.63,,29682.42,7582.69,28.59939,-80.67675,,,,,,,,,,,,1.27,1283.22,
46.38,1146.53,4.85,38.49,4.52,,0.08,71.63,,-43.38,0,3.73,,30753.27,7934.96,28.59897,-80.68032,,,,,,,,,,,,1.08,1357.23,
47.38,1186,5.01,40.08,4.52,,0.08,71.48,,-43.38,0,3.84,,31859.86,8302.28,28.59854,-80.68405,,,,,,,,,,,,0.92,1438.49,
48.38,1227.11,5.18,41.73,4.52,,0.08,71.33,,-43.38,0,3.95,,33003.65,8685.25,28.59809,-80.68794,,,,,,,,,,,,0.78,1527.67,
49.38,1269.9,5.35,43.42,4.52,,0.08,71.18,,-43.38,0,4.07,,34186.18,9084.52,28.59761,-80.692,,,,,,,,,,,,0.66,1590.95,
50.38,1314.43,5.53,45.18,4.52,,0.08,71.04,,-43.38,0,4.19,,35409,9500.75,28.59712,-80.69622,,,,,,,,,,,,0.56,1632.59,
51.4,1311.89,0.28,12.32,0,,0.08,70.9,,-43.38,0,4.17,,36679.04,9936.46,28.59661,-80.70065,,,,,,,,,,,,0.47,1636.08,
52.4,1300.39,0.22,11.8,0,,0.08,70.75,,-43.38,0,4.11,,37912.54,10363,28.59611,-80.70498,,,,,,,,,,,,0.39,1625.28,
53.4,1289.38,0.18,11.37,0,,0.08,70.61,,-43.38,0,4.05,,39134.35,10788.83,28.59561,-80.7093,,,,,,,,,,,,0.33,1614.91,
54.4,1278.76,0.14,11.02,0,,0.08,70.46,,-43.38,0,4,,40344.87,11214.11,28.59511,-80.71362,,,,,,,,,,,,0.28,1603.31,
55.4,1268.47,0.11,10.73,0,,0.08,70.31,,-43.38,0,3.94,,41544.44,11638.94,28.59461,-80.71794,,,,,,,,,,,,0.24,1567.56,
56.42,1258.25,0.09,10.51,0,,0.08,70.16,,-43.38,0,3.89,,42757,12071.9,28.5941,-80.72233,,,,,,,,,,,,0.21,1533.65,
57.42,1248.39,0.08,10.39,0,,0.08,70,,-43.38,0,3.84,,43935.2,12496.08,28.5936,-80.72664,,,,,,,,,,,,0.18,1502.89,
58.42,1238.64,0.07,10.3,0,,0.08,69.85,,-43.38,0,3.79,,45103.03,12920.01,28.5931,-80.73094,,,,,,,,,,,,0.15,1474.56,
59.42,1228.99,0.06,10.22,0,,0.08,69.69,,-43.38,0,3.75,,46260.58,13343.71,28.5926,-80.73525,,,,,,,,,,,,0.13,1448.65,
60.42,1219.42,0.05,10.15,0,,0.08,69.53,,-43.38,0,3.71,,47407.93,13767.22,28.59211,-80.73955,,,,,,,,,,,,0.11,1425.08,
61.42,1209.93,0.04,10.09,0,,0.08,69.36,,-43.38,0,3.67,,48545.15,14190.55,28.59161,-80.74385,,,,,,,,,,,,0.1,1403.78,
62.42,1200.51,0.04,10.03,0,,0.08,69.2,,-43.38,0,3.65,,49672.3,14613.73,28.59111,-80.74814,,,,,,,,,,,,0.09,1384.7,
63.44,1190.95,0.04,9.99,0,,0.08,69.03,,-43.38,0,3.62,,50811.66,15045.23,28.59061,-80.75252,,,,,,,,,,,,0.07,1367.38,
64.44,1181.64,0.03,9.95,0,,0.08,68.86,,-43.38,0,3.6,,51918.61,15468.14,28.59011,-80.75682,,,,,,,,,,,,0.07,1352.17,
65.44,1172.38,0.03,9.92,0,,0.08,68.68,,-43.38,0,3.59,,53015.61,15890.94,28.58962,-80.76111,,,,,,,,,,,,0.06,1338.5,
66.44,1163.16,0.03,9.89,0,,0.08,68.51,,-43.38,0,3.58,,54102.7,16313.64,28.58912,-80.76541,,,,,,,,,,,,0.05,1325.88,
67.44,1153.98,0.02,9.86,0,,0.08,68.33,,-43.38,0,3.57,,55179.91,16736.25,28.58863,-80.7697,,,,,,,,,,,,0.04,1313.62,
68.44,1144.83,0.02,9.84,0,,0.08,68.15,,-43.38,0,3.56,,56247.27,17158.77,28.58813,-80.77399,,,,,,,,,,,,0.04,1301.89,
69.46,1135.54,0.02,9.81,0,,0.08,67.96,,-43.38,0,3.55,,57325.85,17589.67,28.58763,-80.77836,,,,,,,,,,,,0.03,1290.49,
70.48,1126.28,0.02,9.8,0,,0.08,67.77,,-43.38,0,3.54,,58394.22,18020.49,28.58712,-80.78274,,,,,,,,,,,,0.03,1279.47,
71.48,1117.24,0.02,9.78,0,,0.08,67.58,,-43.38,0,3.54,,59431.75,18442.8,28.58663,-80.78703,,,,,,,,,,,,0.02,1268.9,
72.48,1108.22,0.01,9.76,0,,0.08,67.39,,-43.38,0,3.53,,60459.51,18865.05,28.58613,-80.79131,,,,,,,,,,,,0.02,1258.42,
73.5,1099.05,0.01,9.75,0,,0.08,67.19,,-43.38,0,3.53,,61497.78,19295.69,28.58563,-80.79569,,,,,,,,,,,,0.02,1247.66,
74.5,1090.09,0.01,9.74,0,,0.08,66.99,,-43.38,0.01,3.52,,62505.84,19717.83,28.58514,-80.79997,,,,,,,,,,,,0.02,1237.03,
75.5,1081.15,0.01,9.72,0,,0.08,66.79,,-43.38,0.01,3.51,,63504.16,20139.93,28.58464,-80.80426,,,,,,,,,,,,0.01,1226.3,
76.5,1072.24,0.01,9.71,0,,0.08,66.58,,-43.38,0.01,3.51,,64492.77,20561.98,28.58415,-80.80855,,,,,,,,,,,,0.01,1215.48,
77.5,1063.35,0.01,9.7,0,,0.08,66.38,,-43.38,0.01,3.5,,65471.67,20983.99,28.58366,-80.81283,,,,,,,,,,,,0.01,1204.76,
78.52,1054.31,0.01,9.69,0,,0.08,66.16,,-43.38,0.01,3.49,,66460.15,21414.4,28.58316,-80.8172,,,,,,,,,,,,0.01,1194.09,
79.52,1045.47,0.01,9.68,0,,0.08,65.95,,-43.38,0.01,3.49,,67419.47,21836.34,28.58266,-80.82149,,,,,,,,,,,,0.01,1183.75,
80.52,1036.66,0.01,9.67,0,,0.08,65.73,,-43.38,0.01,3.48,,68369.1,22258.25,28.58217,-80.82577,,,,,,,,,,,,0.01,1173.41,
81.54,1027.69,0.01,9.67,0,,0.08,65.51,,-43.38,0.02,3.48,,69327.76,22688.56,28.58167,-80.83014,,,,,,,,,,,,0.01,1162.74,
82.56,1018.75,0.01,9.66,0,,0.08,65.28,,-43.39,0.02,3.47,,70276.37,23118.85,28.58117,-80.83451,,,,,,,,,,,,0.01,1151.83,
83.56,1010,0.01,9.65,0,,0.08,65.05,,-43.39,0.02,3.46,,71196.62,23540.67,28.58068,-80.83879,,,,,,,,,,,,0,1140.78,
84.56,1001.28,0.01,9.65,0,,0.08,64.82,,-43.39,0.03,3.45,,72107.23,23962.46,28.58018,-80.84308,,,,,,,,,,,,0,1129.29,
85.56,992.58,0,9.64,0,,0.08,64.59,,-43.39,0.03,3.44,,73008.19,24384.24,28.57969,-80.84736,,,,,,,,,,,,0,1117.29,
86.56,983.9,0,9.64,0,,0.08,64.35,,-43.39,0.04,3.42,,73899.5,24805.99,28.5792,-80.85164,,,,,,,,,,,,0,1104.95,
87.58,975.08,0,9.63,0,,0.08,64.11,,-43.39,0.04,3.41,,74798.72,25236.15,28.5787,-80.85601,,,,,,,,,,,,0,1092.26,
88.58,966.44,0,9.63,0,,0.08,63.87,,-43.39,0.05,3.39,,75670.58,25657.85,28.57821,-80.86029,,,,,,,,,,,,0,1079.56,
89.58,957.84,0,9.62,0,,0.08,63.62,,-43.39,0.06,3.37,,76532.82,26079.54,28.57772,-80.86458,,,,,,,,,,,,0,1066.48,
90.6,949.08,0,9.62,0,,0.08,63.37,,-43.39,0.06,3.35,,77402.39,26509.64,28.57722,-80.86894,,,,,,,,,,,,0,1052.88,
91.6,940.52,0,9.61,0,,0.08,63.11,,-43.39,0.07,3.33,,78245.19,26931.29,28.57673,-80.87323,,,,,,,,,,,,0,1039.37,
92.6,931.98,0,9.61,0,,0.08,62.86,,-43.39,0.08,3.31,,79078.38,27352.92,28.57624,-80.87751,,,,,,,,,,,,0,1025.78,
93.6,923.47,0,9.61,0,,0.08,62.6,,-43.39,0.09,3.28,,79901.97,27774.53,28.57575,-80.88179,,,,,,,,,,,,0,1012.18,
94.6,914.99,0,9.6,0,,0.08,62.34,,-43.39,0.11,3.26,,80715.95,28196.13,28.57526,-80.88607,,,,,,,,,,,,0,998.64,
95.6,906.53,0,9.6,0,,0.08,62.07,,-43.39,0.12,3.23,,81520.34,28617.72,28.57477,-80.89035,,,,,,,,,,,,0,985.21,
96.6,898.1,0,9.59,0,,0.08,61.8,,-43.39,0.14,3.21,,82315.12,29039.29,28.57428,-80.89463,,,,,,,,,,,,0,971.95,
97.6,889.69,0,9.59,0,,0.08,61.53,,-43.4,0.16,3.18,,83100.32,29460.84,28.57379,-80.89891,,,,,,,,,,,,0,958.88,
98.6,881.31,0,9.59,0,,0.08,61.26,,-43.4,0.18,3.15,,83875.93,29882.39,28.5733,-80.90319,,,,,,,,,,,,0,946.03,
99.6,872.96,0,9.58,0,,0.08,60.98,,-43.4,0.2,3.13,,84641.95,30303.92,28.57281,-80.90747,,,,,,,,,,,,0,933.43,
100.6,864.64,0,9.58,0,,0.08,60.7,,-43.4,0.22,3.1,,85398.4,30725.44,28.57232,-80.91175,,,,,,,,,,,,0,921.09,
101.6,856.35,0,9.58,0,,0.08,60.42,,-43.4,0.25,3.08,,86145.27,31146.95,28.57183,-80.91603,,,,,,,,,,,,0,909,
102.6,848.08,0,9.57,0,,0.08,60.13,,-43.4,0.28,3.05,,86882.56,31568.45,28.57134,-80.92031,,,,,,,,,,,,0,897.05,
103.62,839.69,0,9.57,0,,0.08,59.84,,-43.4,0.31,3.02,,87624.74,31998.36,28.57084,-80.92468,,,,,,,,,,,,0,885,
104.64,831.32,0,9.57,0,,0.08,59.54,,-43.4,0.35,3,,88356.97,32428.27,28.57034,-80.92905,,,,,,,,,,,,0,873.1,
105.64,823.15,0,9.56,0,,0.08,59.25,,-43.41,0.39,2.97,,89065.18,32849.74,28.56986,-80.93333,,,,,,,,,,,,0,861.59,
106.66,814.85,0,9.56,0,,0.08,58.95,,-43.41,0.43,2.94,,89777.7,33279.63,28.56936,-80.93769,,,,,,,,,,,,0,850.07,
107.66,806.75,0,9.56,0,,0.08,58.65,,-43.41,0.47,2.91,,90466.6,33701.09,28.56887,-80.94197,,,,,,,,,,,,0,838.97,
108.68,798.52,0,9.56,0,,0.08,58.35,,-43.41,0.52,2.89,,91159.43,34130.96,28.56837,-80.94634,,,,,,,,,,,,0,827.85,
109.68,790.49,0,9.55,0,,0.08,58.05,,-43.41,0.57,2.86,,91829.02,34552.4,28.56788,-80.95062,,,,,,,,,,,,0,817.08,
110.68,782.5,0,9.55,0,,0.08,57.74,,-43.41,0.63,2.83,,92489.07,34973.83,28.56739,-80.9549,,,,,,,,,,,,0,806.45,
111.68,774.54,0,9.55,0,,0.08,57.44,,-43.41,0.69,2.8,,93139.56,35395.25,28.56691,-80.95917,,,,,,,,,,,,0,795.96,
112.68,766.62,0,9.55,0,,0.08,57.13,,-43.42,0.76,2.76,,93780.51,35816.67,28.56642,-80.96345,,,,,,,,,,,,0,785.64,
113.68,758.73,0,9.54,0,,0.08,56.82,,-43.42,0.82,2.73,,94411.92,36238.08,28.56593,-80.96773,,,,,,,,,,,,0,775.5,
114.68,750.89,0,9.54,0,,0.08,56.51,,-43.42,0.9,2.7,,95033.78,36659.49,28.56544,-80.97201,,,,,,,,,,,,0,765.54,
115.7,742.94,0,9.54,0,,0.08,56.19,,-43.42,0.98,2.66,,95658.25,37089.31,28.56495,-80.97638,,,,,,,,,,,,0,755.59,
116.72,735.03,0,9.54,0,,0.08,55.87,,-43.42,1.07,2.63,,96272.8,37519.13,28.56445,-80.98074,,,,,,,,,,,,0,745.86,
117.72,727.31,0,9.53,0,,0.08,55.56,,-43.42,1.16,2.59,,96865.67,37940.52,28.56396,-80.98502,,,,,,,,,,,,0,736.53,
118.74,719.49,0,9.53,0,,0.08,55.23,,-43.43,1.25,2.56,,97460.58,38370.33,28.56346,-80.98939,,,,,,,,,,,,0,727.25,
119.76,711.72,0,9.53,0,,0.08,54.91,,-43.43,1.36,2.52,,98045.57,38800.14,28.56297,-80.99375,,,,,,,,,,,,0,718.19,
120.76,704.15,0,9.53,0,,0.08,54.59,,-43.43,1.46,2.48,,98609.47,39221.52,28.56248,-80.99803,,,,,,,,,,,,0,709.52,
121.76,696.63,0,9.53,0,,0.08,54.27,,-43.43,1.58,2.45,,99163.84,39642.89,28.56199,-81.00231,,,,,,,,,,,,0,701.05,
122.76,689.16,0,9.52,0,,0.08,53.94,,-43.43,1.7,2.41,,99708.69,40064.25,28.56151,-81.00659,,,,,,,,,,,,0,692.77,
123.76,681.74,0,9.52,0,,0.08,53.62,,-43.44,1.83,2.38,,100244.01,40485.62,28.56102,-81.01086,,,,,,,,,,,,0,684.67,
124.76,674.38,0,9.52,0,,0.08,53.29,,-43.44,1.96,2.34,,100769.81,40906.97,28.56053,-81.01514,,,,,,,,,,,,0,676.76,
125.76,667.07,0,9.52,0,,0.08,52.97,,-43.44,2.1,2.31,,101286.09,41328.33,28.56005,-81.01942,,,,,,,,,,,,0,669.01,
126.76,659.82,0,9.52,0,,0.08,52.64,,-43.44,2.25,2.27,,101792.86,41749.68,28.55956,-81.0237,,,,,,,,,,,,0,661.4,
127.76,652.63,0,9.52,0,,0.08,52.31,,-43.44,2.41,2.24,,102290.11,42171.03,28.55907,-81.02798,,,,,,,,,,,,0,653.94,
128.78,645.35,0,9.51,0,,0.08,51.97,,-43.45,2.57,2.2,,102787.5,42600.81,28.55858,-81.03234,,,,,,,,,,,,0,646.46,
129.8,638.15,0,9.51,0,,0.08,51.64,,-43.45,2.75,2.17,,103274.99,43030.58,28.55808,-81.03671,,,,,,,,,,,,0,639.11,
130.8,631.15,0,9.51,0,,0.08,51.3,,-43.45,2.93,2.14,,103743.32,43451.92,28.55759,-81.04099,,,,,,,,,,,,0,632.01,
131.8,624.21,0,9.51,0,,0.08,50.97,,-43.45,3.12,2.1,,104202.14,43873.26,28.55711,-81.04526,,,,,,,,,,,,0,625.01,
132.8,617.35,0,9.51,0,,0.08,50.64,,-43.45,3.32,2.07,,104651.45,44294.59,28.55662,-81.04954,,,,,,,,,,,,0,618.11,
133.8,610.56,0,9.51,0,,0.08,50.3,,-43.46,3.53,2.04,,105091.26,44715.93,28.55614,-81.05382,,,,,,,,,,,,0,611.3,
134.8,603.84,0,9.51,0,,0.08,49.96,,-43.46,3.75,2,,105521.56,45137.26,28.55565,-81.0581,,,,,,,,,,,,0,604.57,
135.8,597.2,0,9.5,0,,0.08,49.63,,-43.46,3.97,1.97,,105942.36,45558.59,28.55516,-81.06238,,,,,,,,,,,,0,597.92,
136.8,590.63,0,9.5,0,,0.08,49.29,,-43.46,4.21,1.94,,106353.65,45979.92,28.55468,-81.06666,,,,,,,,,,,,0,591.35,
137.82,584.02,0,9.5,0,,0.08,48.94,,-43.46,4.46,1.91,,106763.38,46409.67,28.55418,-81.07102,,,,,,,,,,,,0,584.73,
138.84,577.5,0,9.5,0,,0.08,48.6,,-43.47,4.72,1.88,,107163.23,46839.43,28.55369,-81.07538,,,,,,,,,,,,0,578.2,
139.86,571.07,0,9.5,0,,0.08,48.25,,-43.47,5,1.85,,107553.19,47269.18,28.55319,-81.07975,,,,,,,,,,,,0,571.76,
140.86,564.85,0,9.5,0,,0.08,47.91,,-43.47,5.28,1.81,,107925.92,47690.5,28.55271,-81.08403,,,,,,,,,,,,0,565.53,
141.86,558.73,0,9.5,0,,0.08,47.56,,-43.47,5.57,1.79,,108289.15,48111.82,28.55222,-81.0883,,,,,,,,,,,,0,559.4,
142.86,552.7,0,9.5,0,,0.08,47.22,,-43.47,5.87,1.76,,108642.88,48533.14,28.55173,-81.09258,,,,,,,,,,,,0,553.36,
143.86,546.77,0,9.49,0,,0.08,46.88,,-43.48,6.19,1.73,,108987.12,48954.46,28.55125,-81.09686,,,,,,,,,,,,0,547.42,
144.88,540.83,0,9.49,0,,0.08,46.53,,-43.48,6.52,1.7,,109328.47,49384.21,28.55075,-81.10122,,,,,,,,,,,,0,541.46,
145.9,534.99,0,9.49,0,,0.08,46.17,,-43.48,6.86,1.67,,109659.94,49813.95,28.55026,-81.10559,,,,,,,,,,,,0,535.62,
146.92,529.27,0,9.49,0,,0.08,45.82,,-43.48,7.22,1.64,,109981.54,50243.7,28.54976,-81.10995,,,,,,,,,,,,0,529.88,
147.92,523.78,0,9.49,0,,0.08,45.47,,-43.49,7.59,1.62,,110287.24,50665.01,28.54928,-81.11423,,,,,,,,,,,,0,524.37,
148.94,518.29,0,9.49,0,,0.08,45.12,,-43.49,7.97,1.59,,110589.29,51094.75,28.54878,-81.11859,,,,,,,,,,,,0,518.88,
149.94,513.03,0,9.49,0,,0.08,44.77,,-43.49,8.36,1.57,,110875.82,51516.07,28.5483,-81.12287,,,,,,,,,,,,0,513.6,
150.94,507.9,0,9.49,0,,0.08,44.42,,-43.49,8.77,1.54,,111152.88,51937.39,28.54781,-81.12715,,,,,,,,,,,,0,508.45,
151.96,502.79,0,9.49,0,,0.08,44.07,,-43.5,9.19,1.52,,111425.7,52367.13,28.54732,-81.13151,,,,,,,,,,,,0,503.33,
152.98,497.82,0,9.49,0,,0.08,43.71,,-43.5,9.63,1.5,,111688.65,52796.87,28.54682,-81.13587,,,,,,,,,,,,0,498.35,
154,492.98,0,9.49,0,,0.08,43.35,,-43.5,10.09,1.47,,111941.73,53226.61,28.54633,-81.14024,,,,,,,,,,,,0,493.5,
155,488.39,0,9.48,0,,0.08,43,,-43.5,10.55,1.45,,112180.27,53647.93,28.54584,-81.14452,,,,,,,,,,,,0,488.88,
156,483.93,0,9.48,0,,0.08,42.65,,-43.5,11.02,1.43,,112409.33,54069.24,28.54536,-81.14879,,,,,,,,,,,,0,484.41,
157,479.62,0,9.48,0,,0.08,42.29,,-43.51,11.51,1.41,,112628.91,54490.56,28.54487,-81.15307,,,,,,,,,,,,0,480.09,
158,475.46,0,9.48,0,,0.08,41.94,,-43.51,12.01,1.4,,112839.01,54911.88,28.54439,-81.15735,,,,,,,,,,,,0,475.91,
159,471.45,0,9.48,0,,0.08,41.59,,-43.51,12.53,1.38,,113039.62,55333.19,28.5439,-81.16163,,,,,,,,,,,,0,471.88,
160,467.6,0,9.48,0,,0.08,41.23,,-43.51,13.06,1.36,,113230.75,55754.51,28.54342,-81.16591,,,,,,,,,,,,0,468.02,
161,463.91,0,9.48,0,,0.08,40.88,,-43.52,13.61,1.35,,113412.41,56175.83,28.54293,-81.17018,,,,,,,,,,,,0,464.31,
162,460.39,0,9.48,0,,0.08,40.52,,-43.52,14.17,1.33,,113584.58,56597.15,28.54245,-81.17446,,,,,,,,,,,,0,460.77,
163,457.04,0,9.48,0,,0.08,40.16,,-43.52,14.74,1.32,,113747.28,57018.46,28.54196,-81.17874,,,,,,,,,,,,0,457.4,
164,453.86,0,9.48,0,,0.08,39.81,,-43.52,15.33,1.3,,113900.49,57439.78,28.54148,-81.18302,,,,,,,,,,,,0,454.2,
165,450.85,0,9.48,0,,0.08,39.45,,-43.53,15.94,1.29,,114044.23,57861.11,28.541,-81.18729,,,,,,,,,,,,0,451.18,
166,448.03,0,9.48,0,,0.08,39.09,,-43.53,16.55,1.28,,114178.49,58282.43,28.54051,-81.19157,,,,,,,,,,,,0,448.33,
167.02,445.34,0,9.48,0,,0.08,38.73,,-43.53,17.19,1.27,,114305.68,58712.18,28.54002,-81.19594,,,,,,,,,,,,0,445.62,
168.04,442.84,0,9.48,0,,0.08,38.36,,-43.53,17.85,1.26,,114423,59141.93,28.53952,-81.2003,,,,,,,,,,,,0,443.1,
169.04,440.59,0,9.48,0,,0.08,38,,-43.54,18.51,1.25,,114528.45,59563.25,28.53904,-81.20458,,,,,,,,,,,,0,440.82,
170.06,438.48,0,9.48,0,,0.08,37.63,,-43.54,19.19,1.24,,114626.25,59993,28.53854,-81.20894,,,,,,,,,,,,0,438.7,
171.06,436.62,0,9.48,0,,0.08,37.27,,-43.54,19.87,1.23,,114712.56,60414.33,28.53806,-81.21322,,,,,,,,,,,,0,436.81,
172.06,434.95,0,9.48,0,,0.08,36.91,,-43.54,20.56,1.23,,114789.4,60835.66,28.53757,-81.2175,,,,,,,,,,,,0,435.12,
173.06,433.48,0,9.48,0,,0.08,36.55,,-43.55,21.27,1.22,,114856.76,61256.99,28.53709,-81.22177,,,,,,,,,,,,0,433.64,
174.06,432.22,0,9.48,0,,0.08,36.18,,-43.55,21.98,1.22,,114914.65,61678.32,28.5366,-81.22605,,,,,,,,,,,,0,432.35,
175.06,431.16,0,9.48,0,,0.08,35.82,,-43.55,22.71,1.21,,114963.06,62099.65,28.53612,-81.23033,,,,,,,,,,,,0,431.27,
176.06,430.31,0,9.48,0,,0.08,35.45,,-43.55,23.44,1.21,,115001.99,62520.98,28.53564,-81.23461,,,,,,,,,,,,0,430.39,
177.06,429.66,0,9.48,0,,0.08,35.09,,-43.56,24.18,1.2,,115031.45,62942.32,28.53515,-81.23888,,,,,,,,,,,,0,429.72,
178.06,429.22,0,9.48,0,,0.08,34.72,,-43.56,24.93,1.2,,115051.44,63363.65,28.53467,-81.24316,,,,,,,,,,,,0,429.26,
179.06,428.98,0,9.48,0,,0.08,34.36,,-43.56,25.69,1.2,,115061.95,63784.99,28.53418,-81.24744,,,,,,,,,,,,0,429,
180.06,428.96,0,9.48,0,,0.08,33.99,,-43.57,26.45,1.2,,115062.99,64206.33,28.5337,-81.25172,,,,,,,,,,,,0,428.95,
181.06,429.15,0,9.48,0,,0.08,33.62,,-43.57,27.22,1.2,,115054.55,64627.67,28.53321,-81.256,,,,,,,,,,,,0,429.12,
182.06,429.54,0,9.48,0,,0.08,33.25,,-43.57,27.99,1.2,,115036.64,65049.01,28.53273,-81.26027,,,,,,,,,,,,0,429.49,
183.06,430.14,0,9.48,0,,0.08,32.88,,-43.57,28.77,1.21,,115009.25,65470.36,28.53224,-81.26455,,,,,,,,,,,,0,430.06,
184.08,430.97,0,9.48,0,,0.08,32.5,,-43.58,29.56,1.21,,114971.56,65900.13,28.53175,-81.26891,,,,,,,,,,,,0,430.87,
185.08,431.99,0,9.48,0,,0.08,32.12,,-43.58,30.34,1.21,,114925.03,66321.48,28.53127,-81.27319,,,,,,,,,,,,0,431.86,
186.08,433.21,0,9.48,0,,0.08,31.75,,-43.58,31.11,1.22,,114869.03,66742.82,28.53078,-81.27747,,,,,,,,,,,,0,433.06,
187.08,434.63,0,9.48,0,,0.08,31.37,,-43.58,31.89,1.22,,114803.56,67164.18,28.5303,-81.28175,,,,,,,,,,,,0,434.47,
188.08,436.26,0,9.48,0,,0.08,31,,-43.59,32.66,1.23,,114728.61,67585.53,28.52981,-81.28602,,,,,,,,,,,,0,436.07,
189.08,438.08,0,9.48,0,,0.08,30.62,,-43.59,33.43,1.24,,114644.18,68006.88,28.52933,-81.2903,,,,,,,,,,,,0,437.87,
190.1,440.14,0,9.48,0,,0.08,30.23,,-43.59,34.21,1.25,,114548.31,68436.67,28.52883,-81.29467,,,,,,,,,,,,0,439.91,
191.1,442.36,0,9.48,0,,0.08,29.84,,-43.59,34.97,1.25,,114444.74,68858.02,28.52835,-81.29894,,,,,,,,,,,,0,442.11,
192.1,444.77,0,9.48,0,,0.08,29.46,,-43.6,35.72,1.26,,114331.7,69279.38,28.52786,-81.30322,,,,,,,,,,,,0,444.5,
193.12,447.42,0,9.48,0,,0.08,29.06,,-43.6,36.48,1.27,,114206.63,69709.17,28.52737,-81.30758,,,,,,,,,,,,0,447.12,
194.12,450.2,0,9.48,0,,0.08,28.67,,-43.6,37.21,1.29,,114074.45,70130.54,28.52688,-81.31186,,,,,,,,,,,,0,449.89,
195.12,453.16,0,9.48,0,,0.08,28.28,,-43.61,37.94,1.3,,113932.79,70551.9,28.5264,-81.31614,,,,,,,,,,,,0,452.83,
196.12,456.3,0,9.48,0,,0.08,27.88,,-43.61,38.65,1.31,,113781.65,70973.27,28.52591,-81.32042,,,,,,,,,,,,0,455.95,
197.12,459.62,0,9.48,0,,0.08,27.49,,-43.61,39.35,1.33,,113621.03,71394.64,28.52543,-81.32469,,,,,,,,,,,,0,459.25,
198.12,463.1,0,9.48,0,,0.08,27.09,,-43.61,40.04,1.34,,113450.93,71816.01,28.52495,-81.32897,,,,,,,,,,,,0,462.71,
199.12,466.75,0,9.48,0,,0.08,26.69,,-43.62,40.72,1.36,,113271.35,72237.39,28.52446,-81.33325,,,,,,,,,,,,0,466.34,
200.14,470.64,0,9.48,0,,0.08,26.28,,-43.62,41.39,1.37,,113078.42,72667.19,28.52397,-81.33761,,,,,,,,,,,,0,470.22,
201.14,474.62,0,9.48,0,,0.08,25.88,,-43.62,42.04,1.39,,112879.7,73088.57,28.52348,-81.34189,,,,,,,,,,,,0,474.17,
202.16,478.83,0,9.48,0,,0.08,25.46,,-43.62,42.68,1.41,,112667.23,73518.38,28.52299,-81.34625,,,,,,,,,,,,0,478.37,
203.18,483.2,0,9.48,0,,0.08,25.04,,-43.63,43.31,1.43,,112444.9,73948.19,28.52249,-81.35062,,,,,,,,,,,,0,482.72,
204.2,487.72,0,9.48,0,,0.08,24.62,,-43.63,43.92,1.45,,112212.71,74378,28.522,-81.35498,,,,,,,,,,,,0,487.23,
205.22,492.39,0,9.48,0,,0.08,24.2,,-43.63,44.51,1.47,,111970.64,74807.82,28.5215,-81.35934,,,,,,,,,,,,0,491.88,
206.24,497.2,0,9.48,0,,0.08,23.77,,-43.63,45.08,1.49,,111718.72,75237.63,28.52101,-81.36371,,,,,,,,,,,,0,496.68,
207.24,502.06,0,9.49,0,,0.08,23.35,,-43.64,45.62,1.51,,111462.15,75659.03,28.52052,-81.36798,,,,,,,,,,,,0,501.52,
208.24,507.05,0,9.49,0,,0.08,22.93,,-43.64,46.14,1.53,,111196.1,76080.42,28.52004,-81.37226,,,,,,,,,,,,0,506.49,
209.24,512.16,0,9.49,0,,0.08,22.5,,-43.64,46.65,1.56,,110920.57,76501.82,28.51955,-81.37654,,,,,,,,,,,,0,511.59,
210.24,517.4,0,9.49,0,,0.08,22.07,,-43.65,47.13,1.58,,110635.54,76923.22,28.51907,-81.38082,,,,,,,,,,,,0,516.81,
211.26,522.86,0,9.49,0,,0.08,21.63,,-43.65,47.6,1.61,,110335.05,77353.05,28.51857,-81.38518,,,,,,,,,,,,0,522.27,
212.28,528.45,0,9.49,0,,0.08,21.19,,-43.65,48.05,1.63,,110024.68,77782.88,28.51808,-81.38954,,,,,,,,,,,,0,527.84,
213.3,534.15,0,9.49,0,,0.08,20.73,,-43.65,48.47,1.66,,109704.44,78212.71,28.51758,-81.39391,,,,,,,,,,,,0,533.53,
214.3,539.85,0,9.49,0,,0.08,20.29,,-43.66,48.87,1.69,,109380.9,78634.12,28.5171,-81.39818,,,,,,,,,,,,0,539.22,
215.3,545.65,0,9.49,0,,0.08,19.84,,-43.66,49.24,1.72,,109047.87,79055.53,28.51661,-81.40246,,,,,,,,,,,,0,545.01,
216.32,551.68,0,9.49,0,,0.08,19.37,,-43.66,49.6,1.75,,108698.4,79485.37,28.51612,-81.40683,,,,,,,,,,,,0,551.03,
217.32,557.69,0,9.49,0,,0.08,18.91,,-43.66,49.93,1.78,,108346.19,79906.79,28.51563,-81.4111,,,,,,,,,,,,0,557.03,
218.34,563.92,0,9.49,0,,0.08,18.43,,-43.67,50.24,1.81,,107977.16,80336.64,28.51514,-81.41547,,,,,,,,,,,,0,563.24,
219.34,570.12,0,9.5,0,,0.08,17.96,,-43.67,50.52,1.84,,107605.77,80758.06,28.51465,-81.41974,,,,,,,,,,,,0,569.43,
220.34,576.41,0,9.5,0,,0.08,17.48,,-43.67,50.77,1.87,,107224.9,81179.48,28.51416,-81.42402,,,,,,,,,,,,0,575.71,
221.34,582.79,0,9.5,0,,0.08,16.99,,-43.67,51,1.9,,106834.52,81600.9,28.51368,-81.4283,,,,,,,,,,,,0,582.08,
222.34,589.25,0,9.5,0,,0.08,16.49,,-43.68,51.21,1.93,,106434.65,82022.33,28.51319,-81.43258,,,,,,,,,,,,0,588.53,
223.36,595.92,0,9.5,0,,0.08,15.98,,-43.68,51.39,1.96,,106017,82452.19,28.5127,-81.43694,,,,,,,,,,,,0,595.2,
224.38,602.68,0,9.5,0,,0.08,15.45,,-43.68,51.54,1.99,,105589.46,82882.05,28.5122,-81.4413,,,,,,,,,,,,0,601.95,
225.38,609.38,0,9.5,0,,0.08,14.93,,-43.68,51.67,2.03,,105160.71,83303.48,28.51172,-81.44558,,,,,,,,,,,,0,608.64,
226.38,616.15,0,9.5,0,,0.08,14.39,,-43.69,51.76,2.06,,104722.46,83724.91,28.51123,-81.44986,,,,,,,,,,,,0,615.41,
227.38,623,0,9.5,0,,0.08,13.85,,-43.69,51.83,2.09,,104274.71,84146.35,28.51074,-81.45414,,,,,,,,,,,,0,622.27,
228.4,630.05,0,9.5,0,,0.08,13.27,,-43.69,51.87,2.12,,103808.21,84576.22,28.51025,-81.4585,,,,,,,,,,,,0,629.36,
229.4,637.04,0,9.51,0,,0.08,12.7,,-43.69,51.87,2.16,,103341.26,84997.66,28.50976,-81.46278,,,,,,,,,,,,0,636.42,
230.4,644.08,0,9.51,0,,0.08,12.1,,-43.7,51.85,2.19,,102864.8,85419.1,28.50928,-81.46705,,,,,,,,,,,,0,643.58,
231.4,651.2,0,9.51,0,,0.08,11.49,,-43.7,51.79,2.22,,102378.84,85840.54,28.50879,-81.47133,,,,,,,,,,,,0,650.86,
232.4,658.37,0,9.51,0,,0.08,10.87,,-43.7,51.69,2.26,,101883.37,86261.98,28.5083,-81.47561,,,,,,,,,,,,0,658.26,
233.4,665.6,0,9.51,0,,0.08,10.22,,-43.7,51.56,2.29,,101378.39,86683.42,28.50782,-81.47989,,,,,,,,,,,,0,665.8,
234.4,672.88,0,9.51,0,,0.08,9.54,,-43.7,51.38,2.33,,100863.9,87104.86,28.50733,-81.48416,,,,,,,,,,,,0,673.48,
235.4,680.23,0,9.51,0,,0.08,8.84,,-43.71,51.17,2.36,,100339.9,87526.3,28.50684,-81.48844,,,,,,,,,,,,0,681.32,
236.4,687.62,0,9.51,0,,0.08,8.12,,-43.71,50.92,2.4,,99806.39,87947.75,28.50636,-81.49272,,,,,,,,,,,,0,689.33,
237.4,695.07,0,9.51,0,,0.08,7.36,,-43.71,50.61,2.43,,99263.37,88369.19,28.50587,-81.497,,,,,,,,,,,,0,697.52,
238.4,702.56,0,9.51,0,,0.08,6.57,,-43.71,50.26,2.47,,98710.84,88790.63,28.50538,-81.50127,,,,,,,,,,,,0,705.9,
239.42,710.26,0,9.51,0,,0.08,5.71,,-43.71,49.84,2.51,,98137.45,89220.49,28.50489,-81.50564,,,,,,,,,,,,0,714.64,
240.44,718,0,9.51,0,,0.08,4.82,,-43.71,49.37,2.54,,97554.17,89650.35,28.50439,-81.51,,,,,,,,,,,,0,723.6,
241.44,725.64,0,9.51,0,,0.08,3.89,,-43.72,48.84,2.58,,96972.71,90071.79,28.5039,-81.51428,,,,,,,,,,,,0,732.59,
242.46,733.47,0,9.51,0,,0.08,2.89,,-43.72,48.23,2.61,,96369.82,90501.64,28.50341,-81.51864,,,,,,,,,,,,0,741.98,
243.48,741.35,0,9.51,0,,0.08,1.82,,-43.72,47.54,2.65,,95757.03,90931.49,28.50291,-81.523,,,,,,,,,,,,0,751.6,
244.5,749.27,0,9.51,0,,0.08,0.68,,-43.72,46.77,2.68,,95134.34,91361.34,28.50241,-81.52736,,,,,,,,,,,,0,761.42,
245.52,757.23,0,9.51,0,,0.08,-0.54,,-43.72,45.91,2.72,,94501.76,91791.17,28.50191,-81.53173,,,,,,,,,,,,0,771.45,
246.54,765.22,0,9.51,0,,0.08,-1.86,,-43.72,44.95,2.75,,93859.27,92221,28.50142,-81.53609,,,,,,,,,,,,0,781.67,
247.56,773.26,0,9.51,0,,0.08,-3.28,,-43.73,43.88,2.78,,93206.89,92650.82,28.50092,-81.54045,,,,,,,,,,,,0,792.07,
248.58,781.33,0,9.51,0,,0.08,-4.81,,-43.73,42.69,2.82,,92544.61,93080.63,28.50042,-81.54481,,,,,,,,,,,,0,802.63,
249.58,789.27,0,9.51,0,,0.08,-6.45,,-43.73,41.41,2.85,,91885.71,93502,28.49993,-81.54909,,,,,,,,,,,,0,813.13,
250.6,797.41,0,9.51,0,,0.08,-8.27,,-43.73,39.96,2.87,,91203.83,93931.78,28.49944,-81.55345,,,,,,,,,,,,0,823.97,
251.6,805.42,0,9.5,0,,0.08,-10.21,,-43.74,38.39,2.9,,90525.71,94353.12,28.49895,-81.55772,,,,,,,,,,,,0,834.73,
252.6,813.46,0.01,9.5,0,,0.08,-12.34,,-43.74,36.66,2.93,,89838.09,94774.44,28.49846,-81.562,,,,,,,,,,,,0,845.66,
253.6,821.52,0.01,9.5,0,,0.08,-14.68,,-43.74,34.77,2.96,,89140.97,95195.75,28.49797,-81.56628,,,,,,,,,,,,0,856.78,
254.6,829.62,0.01,9.5,0,,0.08,-17.24,,-43.75,32.7,2.98,,88434.34,95617.03,28.49748,-81.57055,,,,,,,,,,,,0,868.1,
255.6,837.74,0.01,9.5,0,,0.08,-20.04,,-43.75,30.46,3.01,,87718.21,96038.3,28.497,-81.57483,,,,,,,,,,,,0,879.57,
256.6,845.9,0.01,9.5,0,,0.08,-23.1,,-43.76,28.05,3.04,,86992.58,96459.55,28.49651,-81.5791,,,,,,,,,,,,0,891.19,
257.62,854.25,0.01,9.5,0,,0.08,-26.46,,-43.77,25.43,3.06,,86242.64,96889.21,28.49601,-81.58346,,,,,,,,,,,,0,903.18,
258.62,862.47,0.01,9.51,0,,0.08,-30,,-43.78,22.73,3.09,,85497.8,97310.44,28.49552,-81.58774,,,,,,,,,,,,0,915.07,
259.62,870.73,0.01,9.51,0,,0.08,-33.78,,-43.79,19.91,3.11,,84743.46,97731.66,28.49503,-81.59201,,,,,,,,,,,,0,927.19,
260.62,879.02,0.01,9.52,0,,0.08,-37.8,,-43.8,16.97,3.14,,83979.6,98152.88,28.49454,-81.59628,,,,,,,,,,,,0,939.58,
261.62,887.33,0,9.52,0,,0.08,-42.07,,-43.81,13.9,3.17,,83206.22,98574.1,28.49406,-81.60056,,,,,,,,,,,,0,952.21,
262.62,895.68,0,9.53,0,,0.08,-46.58,,-43.82,10.72,3.19,,82423.32,98995.33,28.49357,-81.60483,,,,,,,,,,,,0,965.07,
263.62,904.05,0,9.54,0,,0.08,-51.3,,-43.83,7.44,3.22,,81630.9,99416.55,28.49308,-81.60911,,,,,,,,,,,,0,978.14,
264.64,912.62,0,9.54,0,,0.08,-56.3,,-43.83,4,3.24,,80812.81,99846.19,28.49258,-81.61347,,,,,,,,,,,,0,991.64,
265.64,921.04,0,9.55,0,,0.08,-61.32,,-43.83,0.58,3.27,,80001.13,100267.4,28.49209,-81.61774,,,,,,,,,,,,0,1004.99,
266.64,929.49,0,9.56,0,,0.08,-66.36,,-43.82,-2.85,3.29,,79179.92,100688.6,28.4916,-81.62201,,,,,,,,,,,,0,1018.41,
267.66,938.13,0,9.56,0,,0.08,-71.4,,-43.78,-6.3,3.32,,78332.45,101118.19,28.4911,-81.62637,,,,,,,,,,,,0,1032.09,
268.66,946.61,0.01,9.57,0,,0.08,-76.07,,-43.68,-9.51,3.34,,77491.96,101539.34,28.49061,-81.63065,,,,,,,,,,,,0,1045.41,
269.66,955.09,0.01,9.56,0,,0.08,-80.28,,-43.44,-12.43,3.36,,76641.91,101960.43,28.49012,-81.63492,,,,,,,,,,,,0,1058.54,
270.66,963.57,0.02,9.56,0,,0.08,-83.79,,-42.88,-14.86,3.38,,75782.32,102381.43,28.48963,-81.63919,,,,,,,,,,,,0,1071.38,
271.68,972.22,0.02,9.55,0,,0.08,-86.39,,-41.44,-16.63,3.39,,74895.71,102810.73,28.48913,-81.64355,,,,,,,,,,,,0,1084.07,
272.68,980.68,0.02,9.54,0,,0.08,-87.71,,-38.74,-17.42,3.41,,74016.85,103231.46,28.48864,-81.64782,,,,,,,,,,,,0,1096.14,
273.7,989.32,0.03,9.54,0,,0.08,-87.52,,-37.73,-17.04,3.42,,73110.58,103660.42,28.48814,-81.65217,,,,,,,,,,,,0,1108.3,
274.7,997.8,0.03,9.55,0,,0.08,-85.64,,-39.56,-15.34,3.43,,72212.45,104080.75,28.48765,-81.65643,,,,,,,,,,,,0,1119.94,
275.7,1006.32,0.03,9.57,0,,0.08,-81.97,,-41.09,-12.33,3.44,,71304.79,104500.87,28.48717,-81.6607,,,,,,,,,,,,0,1131.09,
276.7,1014.89,0.02,9.59,0,,0.08,-76.63,,-41.98,-8.14,3.45,,70387.57,104920.8,28.48668,-81.66496,,,,,,,,,,,,0.01,1141.85,
277.7,1023.52,0.01,9.58,0,,0.08,-69.97,,-42.5,-3.1,3.46,,69460.8,105340.59,28.48619,-81.66921,,,,,,,,,,,,0.01,1152.34,
278.72,1032.36,0.01,9.54,0,,0.08,-62.6,,-42.83,2.4,3.47,,68505.67,105768.7,28.48569,-81.67356,,,,,,,,,,,,0.01,1162.81,
279.74,1041.2,0.02,9.44,0,,0.08,-55.78,,-43.05,7.5,3.47,,67540.65,106196.81,28.48519,-81.6779,,,,,,,,,,,,0.01,1173.08,
280.74,1049.79,0.04,9.29,0,,0.08,-50.96,,-43.21,11.18,3.48,,66585.03,106616.61,28.4847,-81.68216,,,,,,,,,,,,0.01,1182.98,
281.76,1058.47,0.06,9.14,0,,0.08,-49.3,,-43.32,12.51,3.48,,65600.71,107045.03,28.4842,-81.68651,,,,,,,,,,,,0.01,1192.96,
282.76,1066.97,0.07,9.13,0,,0.08,-51.75,,-43.4,10.75,3.49,,64626.39,107465.32,28.48371,-81.69077,,,,,,,,,,,,0.01,1202.89,
283.76,1075.56,0.04,9.31,0,,0.08,-58.23,,-43.44,6.07,3.49,,63642.82,107885.88,28.48322,-81.69504,,,,,,,,,,,,0.01,1213.11,
284.76,1084.26,0.01,9.5,0,,0.08,-67.33,,-43.39,-0.4,3.5,,62649.88,108306.55,28.48273,-81.69931,,,,,,,,,,,,0.02,1223.4,
285.78,1093.12,0.04,9.62,0,,0.08,-76.34,,-43.04,-6.76,3.5,,61627.32,108735.56,28.48223,-81.70366,,,,,,,,,,,,0.02,1233.79,
286.78,1101.67,0.09,9.64,0,,0.08,-81.23,,-42.17,-10.14,3.51,,60615.18,109155.77,28.48174,-81.70792,,,,,,,,,,,,0.02,1243.57,
287.78,1110.13,0.1,9.66,0,,0.08,-79.45,,-41.94,-8.58,3.51,,59593.48,109575.32,28.48125,-81.71218,,,,,,,,,,,,0.02,1253.04,
288.78,1118.76,0.05,9.61,0,,0.08,-71.25,,-42.54,-2.4,3.52,,58562.24,109994.24,28.48076,-81.71643,,,,,,,,,,,,0.03,1262.78,
289.8,1127.66,0.05,9.28,0,,0.08,-60.89,,-42.97,5.23,3.52,,57500.63,110421.31,28.48026,-81.72076,,,,,,,,,,,,0.03,1273.1,
290.8,1136.15,0.14,8.75,0,,0.08,-55.99,,-43.2,8.86,3.53,,56450.54,110840.29,28.47977,-81.72501,,,,,,,,,,,,0.04,1283.11,
291.8,1144.59,0.11,8.9,0,,0.08,-61,,-43.29,5.21,3.53,,55391.55,111259.9,28.47928,-81.72927,,,,,,,,,,,,0.04,1293.33,
292.8,1153.27,0.03,9.51,0,,0.08,-72.54,,-43.1,-3.04,3.54,,54323.46,111679.88,28.47878,-81.73353,,,,,,,,,,,,0.05,1304.53,
293.8,1161.73,0.18,9.81,0,,0.08,-79.47,,-42.27,-7.86,3.55,,53245.94,112099.38,28.47829,-81.73778,,,,,,,,,,,,0.05,1315.62,
294.8,1170.12,0.13,9.72,0,,0.08,-73.49,,-42.45,-3.25,3.56,,52158.88,112517.66,28.4778,-81.74203,,,,,,,,,,,,0.06,1327.14,
295.8,1178.74,0.11,8.91,0,,0.08,-61.72,,-42.98,5.38,3.58,,51062.43,112935.34,28.47731,-81.74626,,,,,,,,,,,,0.07,1340.49,
296.82,1187.14,0.23,8.34,0,,0.08,-61.69,,-43.2,5.38,3.6,,49935,113362.09,28.47681,-81.75059,,,,,,,,,,,,0.08,1354.84,
297.82,1195.67,0.08,9.5,0,,0.08,-74.37,,-42.9,-3.72,3.62,,48820.9,113781.23,28.47632,-81.75484,,,,,,,,,,,,0.1,1371.15,
298.82,1203.82,0.28,10.1,0,,0.08,-76.63,,-42.32,-5.08,3.65,,47697.45,114199.35,28.47583,-81.75908,,,,,,,,,,,,0.11,1388.69,
299.82,1212.25,0.13,8.73,0,,0.08,-63.9,,-42.93,4.28,3.69,,46564.61,114616.06,28.47534,-81.76331,,,,,,,,,,,,0.13,1408.52,
300.82,1220.28,0.27,8.15,0,,0.08,-66.15,,-43.12,2.59,3.72,,45423.3,115033.63,28.47485,-81.76755,,,,,,,,,,,,0.15,1429.47,
301.82,1228.45,0.35,10.31,0,,0.08,-77.44,,-42.42,-5.39,3.76,,44273.4,115451.58,28.47436,-81.77179,,,,,,,,,,,,0.17,1452.68,
302.82,1236.53,0.1,8.74,0,,0.08,-66.24,,-42.86,2.93,3.81,,43114.2,115867.48,28.47387,-81.77601,,,,,,,,,,,,0.2,1477.28,
303.84,1244.48,0.28,8,0,,0.08,-69.64,,-43.01,0.4,3.85,,41923.33,116292.43,28.47337,-81.78032,,,,,,,,,,,,0.23,1503.63,
304.84,1252.11,0.49,10.73,0,,0.08,-74.15,,-42.5,-2.58,3.9,,40747.29,116708.7,28.47289,-81.78454,,,,,,,,,,,,0.27,1530.65,
305.86,1259.66,0.58,7.27,0,,0.08,-66.23,,-43.03,3.13,3.95,,39538.94,117131.82,28.47239,-81.78883,,,,,,,,,,,,0.31,1558.95,
306.86,1266.73,0.64,11.23,0,,0.08,-74.97,,-42.49,-2.98,3.99,,38346.73,117547.25,28.4719,-81.79304,,,,,,,,,,,,0.37,1587.02,
307.86,1273.42,0.69,6.9,0,,0.08,-67.95,,-42.98,2.09,4.03,,37146.54,117960.78,28.47141,-81.79724,,,,,,,,,,,,0.43,1598.12,
308.88,1279.82,0.57,9.97,0,,0.08,-71.1,,-42.69,0.07,4.08,,35915.24,118382.45,28.47092,-81.80151,,,,,,,,,,,,0.52,1604.15,
309.9,1285.63,0.37,7.17,0,,0.08,-74.63,,-42.67,-2.51,4.12,,34677.01,118803.06,28.47042,-81.80578,,,,,,,,,,,,0.61,1609.7,
310.92,1290.63,0.89,6.23,0,,0.08,-69.13,,-42.92,1.56,4.16,,33432.24,119221.73,28.46993,-81.81003,,,,,,,,,,,,0.73,1614.5,
311.92,1294.9,0.52,4.84,0,,0.08,-68.69,,-42.85,2.07,4.2,,32206.59,119631.09,28.46945,-81.81418,,,,,,,,,,,,0.87,1618.57,
312.92,1298.13,0.88,9.55,0,,0.08,-70.95,,-42.74,0.57,4.23,,30976.46,120038.92,28.46897,-81.81831,,,,,,,,,,,,1.04,1621.68,
313.92,1300.24,1.07,10.54,0,,0.08,-71.89,,-42.71,-0.01,4.27,,29742.75,120444.61,28.46849,-81.82243,,,,,,,,,,,,1.25,1623.8,
314.94,1301.03,1.1,9.12,0,,0.08,-71.2,,-42.75,0.58,4.29,,28481.91,120855.82,28.468,-81.8266,,,,,,,,,,,,1.51,1624.69,
315.94,1300.15,1.09,4.37,0,,0.08,-70.56,,-42.81,1.1,4.31,,27244.87,121256.06,28.46753,-81.83066,,,,,,,,,,,,1.81,1624.06,
316.96,1297.27,1.41,4.26,0,,0.08,-72.34,,-42.77,-0.15,4.33,,25983.97,121660.99,28.46705,-81.83477,,,,,,,,,,,,2.2,1621.57,
317.96,1292.12,1.58,8.53,0,,0.08,-72.73,,-42.71,-0.26,4.34,,24750.64,122053.8,28.46659,-81.83875,,,,,,,,,,,,2.65,1617.01,
318.96,1284.26,1.85,8.76,0,,0.08,-72.36,,-42.76,0.05,4.33,,23522.55,122441.8,28.46613,-81.84268,,,,,,,,,,,,3.21,1609.93,
319.96,1273.22,2.19,13.07,0,,0.08,-72.24,,-42.75,0.27,4.32,,22302.58,122824.2,28.46568,-81.84656,,,,,,,,,,,,3.88,1599.89,
320.96,1258.47,2.57,16.4,0,,0.08,-72.68,,-42.73,0.06,4.3,,21094.02,123200.02,28.46523,-81.85037,,,,,,,,,,,,4.69,1586.4,
321.96,1239.48,3.02,20.62,0,,0.08,-72.8,,-42.72,0.06,4.27,,19900.68,123568.06,28.4648,-81.85411,,,,,,,,,,,,5.68,1568.9,
322.98,1215.22,3.53,25.51,0,,0.08,-72.96,,-42.72,0.03,4.22,,18703.64,123934.17,28.46436,-81.85782,,,,,,,,,,,,6.89,1546.39,
323.98,1186.3,4.06,30.61,0,,0.08,-73.18,,-42.7,-0.02,4.14,,17554.69,124282.59,28.46395,-81.86135,,,,,,,,,,,,8.31,1519.31,
325,1151.5,4.59,35.81,0,,0.08,-73.3,,-42.69,0,4.02,,16413.04,124625.76,28.46355,-81.86483,,,,,,,,,,,,10.02,1486.41,
326,1112.5,5.07,40.46,0,,0.08,-73.44,,-42.68,0,3.87,,15328.38,124948.86,28.46316,-81.86811,,,,,,,,,,,,11.97,1387.6,
327,1069.35,5.47,44.36,0,,0.08,-73.6,,-42.67,0,3.69,,14282.38,125257.55,28.4628,-81.87124,,,,,,,,,,,,14.17,1274.44,
328,1022.82,5.79,47.5,0,,0.08,-73.75,,-42.66,0,3.49,,13278.69,125550.9,28.46245,-81.87421,,,,,,,,,,,,16.62,1166.98,
329.02,972.73,6.03,49.84,0,,0.08,-73.92,,-42.65,0,3.29,,12301.49,125833.59,28.46211,-81.87708,,,,,,,,,,,,19.36,1067.14,
330.04,920.88,6.18,51.27,0,,0.08,-74.09,,-42.63,0,3.08,,11373.55,126099.12,28.4618,-81.87977,,,,,,,,,,,,22.31,978.5,
331.06,868.25,6.23,51.76,0,,0.08,-74.27,,-42.62,0,2.87,,10496.13,126347.32,28.4615,-81.88229,,,,,,,,,,,,25.46,901.01,
332.08,815.72,6.19,51.41,0,,0.08,-74.46,,-42.61,0,2.66,,9669.64,126578.27,28.46122,-81.88463,,,,,,,,,,,,28.75,833.4,
333.1,764.09,6.08,50.3,0,,0.08,-74.66,,-42.59,0,2.47,,8893.63,126792.31,28.46097,-81.8868,,,,,,,,,,,,32.15,773.79,
334.1,715,5.91,48.61,0,,0.08,-74.86,,-42.58,0,2.29,,8180.71,126986.27,28.46074,-81.88877,,,,,,,,,,,,35.57,721.27,
335.12,667.03,5.69,46.4,0,,0.08,-75.08,,-42.56,0,2.11,,7500.63,127168.6,28.46052,-81.89062,,,,,,,,,,,,39.09,672.15,
336.14,621.57,5.43,43.84,0,,0.08,-75.32,,-42.54,0,1.95,,6865.9,127336.08,28.46032,-81.89231,,,,,,,,,,,,42.64,626.34,
337.14,580.06,5.09,40.52,0,,0.08,-75.56,,-42.53,0,1.81,,6285.07,127486.79,28.46014,-81.89384,,,,,,,,,,,,46.11,584.45,
338.16,541.57,4.69,36.62,0,,0.08,-75.82,,-42.51,0,1.68,,5731.49,127627.86,28.45997,-81.89527,,,,,,,,,,,,49.62,545.54,
339.18,506.99,4.31,32.88,0,,0.08,-76.09,,-42.49,0,1.56,,5213.35,127757.35,28.45981,-81.89658,,,,,,,,,,,,53.11,510.55,
340.18,476.28,4.02,30,0,,0.08,-76.37,,-42.48,0,1.46,,4736.36,127874.13,28.45967,-81.89777,,,,,,,,,,,,56.5,479.54,
341.18,447.72,3.84,28.25,0,,0.08,-76.66,,-42.46,0,1.37,,4287.48,127981.68,28.45954,-81.89886,,,,,,,,,,,,59.85,450.82,
342.18,417.66,4.17,31.47,0,,0.08,-76.96,,-42.44,0,1.27,,3866.14,128080.33,28.45942,-81.89986,,,,,,,,,,,,63.14,421.18,
343.18,383.16,4.59,35.52,0,,0.08,-77.28,,-42.43,0,1.16,,3475.87,128169.49,28.45931,-81.90076,,,,,,,,,,,,66.33,387.08,
344.18,349.84,4.15,31.19,0,,0.08,-77.62,,-42.41,0,1.06,,3119.01,128248.86,28.45922,-81.90157,,,,,,,,,,,,69.36,353.07,
345.18,328.7,2.73,17.29,0,,0.08,-77.98,,-42.39,0,0.99,,2788.7,128320.2,28.45913,-81.90229,,,,,,,,,,,,72.26,330.43,
346.18,317.25,1.96,9.84,0,,0.08,-78.34,,-42.37,0,0.95,,2473.21,128386.26,28.45905,-81.90296,,,,,,,,,,,,75.14,318.24,
347.2,309.95,1.63,6.65,0,,0.08,-78.71,,-42.35,0,0.92,,2160.02,128449.75,28.45897,-81.9036,,,,,,,,,,,,78.08,310.62,
348.2,304.64,1.49,5.33,0,,0.08,-79.07,,-42.33,0,0.9,,1858.62,128508.85,28.4589,-81.9042,,,,,,,,,,,,81.01,305.17,
349.22,299.97,1.43,4.8,0,,0.08,-79.43,,-42.31,0,0.89,,1555.76,128566.26,28.45883,-81.90478,,,,,,,,,,,,84.05,300.45,
350.22,295.83,1.39,4.39,0,,0.08,-79.78,,-42.28,0,0.87,,1262.81,128619.93,28.45876,-81.90533,,,,,,,,,,,,87.07,296.27,
351.22,292.07,1.36,4.04,0,,0.08,-80.12,,-42.26,0,0.86,,973.43,128671.15,28.4587,-81.90585,,,,,,,,,,,,90.16,292.47,
352.22,288.62,1.33,3.74,0,,0.08,-80.46,,-42.23,0,0.85,,687.3,128720.06,28.45864,-81.90634,,,,,,,,,,,,93.3,291.04,
353.22,285.45,1.3,3.49,0,,0.08,-80.78,,-42.21,0,0.83,,404.14,128766.79,28.45858,-81.90681,,,,,,,,,,,,96.5,292.67,
354.22,282.51,1.28,3.27,0,,0.08,-81.1,,-42.18,0,0.82,,123.75,128811.45,28.45852,-81.90727,,,,,,,,,,,,99.76,294.18,
