Time,Surface Speed (m/s),GForce (g),Acceleration (m/s^2),Thrust (kN),TWR,Mass (t),Pitch (deg),Heading (deg),Roll (deg),Angle of Attack (deg),Mach number,Altitude from Terrain (m),Altitude from the Sea (m),Downrange Distance (m),Latitude (deg),Longitude (deg),Apoapsis (m),Periapsis (m),Time to Apoapsis (s),Time to Periapsis (s),Inclination (deg),Orbital Velocity (m/s),Gravity (m/s^2),Target Distance (m),Target Speed (m/s),Stage DeltaV (m/s),Vessel DeltaV (m/s),Pressure (kPa),External Temperature (K),
1,118.75,12.66,114.57,52.33,,0.4,78.8,,-87.65,0.01,0.31,,159.75,11.8,28.60839,-80.59987,,,,,,,,,,,,99.48,293.91,
2,238.39,13.39,121.71,52.42,,0.38,78.17,,-82.26,0.01,0.66,,335.31,47.68,28.60839,-80.60024,,,,,,,,,,,,97.46,292.98,
3,359.25,13.04,118.37,52.55,,0.35,77.74,,-77.52,0,1.01,,629.36,110.51,28.60839,-80.60088,,,,,,,,,,,,94.14,346.6,
4.02,468.28,12.01,108.22,52.71,,0.32,77.39,,-82.66,0,1.34,,1042.41,201.63,28.60839,-80.60182,,,,,,,,,,,,89.62,456.15,
5.04,582.73,12.35,111.63,52.84,,0.29,77.09,,-95.61,0,1.68,,1566.42,320.35,28.60838,-80.60303,,,,,,,,,,,,84.16,570.52,
6.06,693.31,11.88,106.98,52.95,,0.27,76.81,,-112.18,0,2.02,,2201.86,467.69,28.60838,-80.60454,,,,,,,,,,,,77.91,681.61,
7.06,726.1,6.68,75.06,0,,0.25,76.56,,-130.22,0,2.2,,2915.09,636.44,28.60838,-80.60627,,,,,,,,,,,,71.36,736.45,
8.08,660.99,4.25,51.23,0,,0.16,76.35,,-161.07,0,2,,3598.27,800.96,28.60838,-80.60795,,,,,,,,,,,,65.52,666.5,
9.08,633.19,0.74,16.89,4.58,,0.16,76.13,,-176.48,0,1.92,,4223.02,953.87,28.60838,-80.60952,,,,,,,,,,,,60.54,634.97,
10.08,619,0.38,13.39,4.57,,0.16,75.91,,175.98,0,1.89,,4830.15,1104.91,28.60839,-80.61107,,,,,,,,,,,,56,620.4,
11.08,607.96,0.07,10.46,4.57,,0.15,75.68,,172.09,0,1.87,,5424.53,1255.27,28.60839,-80.61261,,,,,,,,,,,,51.84,609.04,
12.08,599.61,0.19,8.01,4.57,,0.15,75.44,,169.97,0,1.85,,6008.96,1405.63,28.6084,-80.61415,,,,,,,,,,,,48,600.41,
13.1,593.46,0.42,5.93,4.56,,0.15,75.19,,168.75,0,1.85,,6597.31,1559.66,28.6084,-80.61573,,,,,,,,,,,,44.37,594.02,
14.1,589.47,0.61,4.28,4.56,,0.15,74.94,,168.05,0,1.85,,7168.61,1711.86,28.60841,-80.61729,,,,,,,,,,,,41.07,589.83,
15.12,587.24,0.79,3.1,4.55,,0.15,74.68,,167.62,0,1.85,,7747.6,1868.87,28.60841,-80.61889,,,,,,,,,,,,37.93,587.4,
16.12,586.64,0.94,2.65,4.55,,0.14,74.42,,167.35,0,1.87,,8313.21,2024.99,28.60842,-80.62049,,,,,,,,,,,,35.05,586.63,
17.12,587.47,1.09,2.97,4.55,,0.14,74.16,,167.18,0,1.88,,8878.22,2183.71,28.60843,-80.62212,,,,,,,,,,,,32.36,587.31,
18.14,589.69,1.22,3.75,4.54,,0.14,73.89,,167.06,0,1.91,,9455.29,2348.72,28.60843,-80.62381,,,,,,,,,,,,29.79,589.39,
19.14,593.12,1.34,4.7,4.54,,0.14,73.62,,166.99,0,1.93,,10023,2513.94,28.60844,-80.6255,,,,,,,,,,,,27.42,592.68,
20.14,597.74,1.46,5.72,4.54,,0.14,73.35,,166.93,0,1.96,,10593.79,2682.99,28.60845,-80.62723,,,,,,,,,,,,25.21,597.17,
21.16,603.65,1.58,6.79,4.54,,0.13,73.07,,166.9,0,2,,11180.3,2859.76,28.60845,-80.62904,,,,,,,,,,,,23.09,602.95,
22.18,610.75,1.7,7.88,4.53,,0.13,72.78,,166.87,0,2.04,,11772.3,3041.33,28.60846,-80.6309,,,,,,,,,,,,21.11,609.93,
23.2,619.02,1.81,8.96,4.53,,0.13,72.5,,166.86,0,2.08,,12370.89,3228.12,28.60847,-80.63282,,,,,,,,,,,,19.25,618.1,
24.2,628.27,1.92,10.04,4.53,,0.13,72.22,,166.84,0,2.12,,12965.21,3416.75,28.60848,-80.63475,,,,,,,,,,,,17.55,627.27,
25.2,638.61,2.03,11.11,4.53,,0.13,71.95,,166.84,0,2.17,,13567.93,3611.23,28.60849,-80.63674,,,,,,,,,,,,15.97,637.62,
26.22,650.31,2.15,12.21,4.53,,0.12,71.67,,166.83,0,2.23,,14192.42,3816.08,28.6085,-80.63884,,,,,,,,,,,,14.46,649.44,
27.24,663.16,2.26,13.32,4.53,,0.12,71.39,,166.82,0,2.28,,14827.78,4027.93,28.6085,-80.64101,,,,,,,,,,,,13.06,662.61,
28.26,677.18,2.38,14.45,4.53,,0.12,71.11,,166.82,0,2.34,,15475.09,4247.24,28.60851,-80.64326,,,,,,,,,,,,11.76,677.19,
29.26,692.09,2.5,15.6,4.52,,0.12,70.84,,166.82,0,2.4,,16122.34,4469.97,28.60853,-80.64554,,,,,,,,,,,,10.58,692.94,
30.28,708.53,2.62,16.81,4.52,,0.12,70.56,,166.82,0,2.46,,16796.54,4705.54,28.60854,-80.64795,,,,,,,,,,,,9.47,710.56,
31.28,725.87,2.74,18.02,4.52,,0.11,70.3,,166.82,0,2.52,,17472.35,4945.21,28.60855,-80.65041,,,,,,,,,,,,8.48,729.47,
32.28,744.45,2.87,19.26,4.52,,0.11,70.03,,166.82,0,2.58,,18163.96,5194.05,28.60856,-80.65296,,,,,,,,,,,,7.58,750.1,
33.28,764.3,2.99,20.51,4.52,,0.11,69.77,,166.82,0,2.64,,18872.47,5452.58,28.60857,-80.6556,,,,,,,,,,,,6.75,772.54,
34.3,785.86,3.13,21.81,4.52,,0.11,69.51,,166.82,0,2.7,,19613.75,5726.84,28.60859,-80.65841,,,,,,,,,,,,5.99,797.47,
35.32,808.75,3.26,23.11,4.52,,0.11,69.26,,166.83,0,2.77,,20375.02,6012.36,28.6086,-80.66134,,,,,,,,,,,,5.3,824.63,
36.34,833,3.39,24.43,4.52,,0.1,69.01,,166.83,0,2.83,,21157.49,6309.74,28.60861,-80.66439,,,,,,,,,,,,4.68,854.31,
37.34,858.08,3.52,25.72,4.52,,0.1,68.77,,166.83,0,2.91,,21946.37,6613.41,28.60863,-80.6675,,,,,,,,,,,,4.13,886.16,
38.34,884.47,3.65,27.03,4.52,,0.1,68.53,,166.84,0,2.98,,22757.95,6929.67,28.60865,-80.67074,,,,,,,,,,,,3.64,921.07,
39.34,912.18,3.79,28.35,4.52,,0.1,68.3,,166.84,0,3.07,,23593.39,7259.12,28.60866,-80.67411,,,,,,,,,,,,3.19,959.36,
40.36,941.84,3.93,29.72,4.52,,0.1,68.06,,166.84,0,3.15,,24471.33,7609.39,28.60868,-80.6777,,,,,,,,,,,,2.79,1002.29,
41.36,972.29,4.07,31.09,4.52,,0.09,67.84,,166.85,0,3.24,,25358.55,7967.38,28.6087,-80.68137,,,,,,,,,,,,2.43,1048.62,
42.36,1004.14,4.21,32.49,4.52,,0.09,67.62,,166.85,0,3.33,,26273.23,8340.48,28.60872,-80.68519,,,,,,,,,,,,2.12,1099.62,
43.36,1037.42,4.35,33.93,4.52,,0.09,67.41,,166.86,0,3.43,,27216.59,8729.35,28.60874,-80.68917,,,,,,,,,,,,1.83,1155.77,
44.38,1072.88,4.5,35.42,4.52,,0.09,67.2,,166.86,0,3.53,,28209.7,9142.93,28.60876,-80.69341,,,,,,,,,,,,1.58,1218.86,
45.4,1109.89,4.66,36.97,4.52,,0.09,66.99,,166.86,0,3.64,,29235.34,9574.38,28.60878,-80.69783,,,,,,,,,,,,1.36,1288.33,
46.4,1147.75,4.82,38.52,4.52,,0.08,66.8,,166.87,0,3.74,,30273.82,10015.43,28.6088,-80.70235,,,,,,,,,,,,1.16,1363.09,
47.4,1187.19,4.98,40.12,4.52,,0.08,66.61,,166.87,0,3.85,,31346.3,10475.13,28.60883,-80.70705,,,,,,,,,,,,0.99,1445.17,
48.4,1228.28,5.15,41.78,4.52,,0.08,66.42,,166.88,0,3.97,,32454.19,10954.23,28.60885,-80.71196,,,,,,,,,,,,0.85,1535.34,
49.4,1271.06,5.32,43.48,4.52,,0.08,66.24,,166.88,0,4.08,,33598.96,11453.55,28.60888,-80.71708,,,,,,,,,,,,0.72,1592.05,
50.4,1315.6,5.5,45.25,4.52,,0.08,66.06,,166.89,0,4.2,,34782.09,11973.88,28.6089,-80.72241,,,,,,,,,,,,0.61,1633.68,
51.4,1312.13,0.31,12.56,0,,0.08,65.89,,166.89,0,4.19,,35985.39,12507.33,28.60893,-80.72787,,,,,,,,,,,,0.51,1636.31,
52.4,1300.66,0.25,12.01,0,,0.08,65.71,,166.9,0,4.13,,37176.81,13039.77,28.60896,-80.73333,,,,,,,,,,,,0.44,1625.52,
53.4,1289.7,0.2,11.56,0,,0.08,65.53,,166.9,0,4.07,,38356.36,13571.18,28.60899,-80.73877,,,,,,,,,,,,0.37,1615.2,
54.4,1279.18,0.16,11.19,0,,0.08,65.35,,166.91,0,4.01,,39524.46,14101.77,28.60901,-80.7442,,,,,,,,,,,,0.32,1605.28,
55.4,1269.01,0.13,10.89,0,,0.08,65.17,,166.91,0,3.96,,40681.46,14631.66,28.60904,-80.74963,,,,,,,,,,,,0.27,1576.44,
56.4,1259.15,0.1,10.63,0,,0.08,64.98,,166.91,0,3.91,,41827.65,15161,28.60907,-80.75506,,,,,,,,,,,,0.23,1543.15,
57.42,1249.33,0.08,10.45,0,,0.08,64.79,,166.92,0,3.86,,42985.87,15700.46,28.6091,-80.76058,,,,,,,,,,,,0.2,1511.55,
58.44,1239.65,0.07,10.35,0,,0.08,64.59,,166.92,0,3.81,,44133.24,16239.52,28.60913,-80.7661,,,,,,,,,,,,0.17,1482.27,
59.44,1230.27,0.06,10.26,0,,0.08,64.39,,166.93,0,3.76,,45247.7,16767.66,28.60915,-80.77151,,,,,,,,,,,,0.15,1455.8,
60.44,1220.99,0.06,10.19,0,,0.08,64.2,,166.93,0,3.72,,46351.92,17295.49,28.60918,-80.77692,,,,,,,,,,,,0.13,1431.51,
61.46,1211.62,0.05,10.13,0,,0.08,63.99,,166.94,0,3.68,,47467.75,17833.6,28.60921,-80.78243,,,,,,,,,,,,0.11,1408.91,
62.46,1202.51,0.04,10.07,0,,0.08,63.79,,166.94,0,3.65,,48551.49,18360.91,28.60923,-80.78783,,,,,,,,,,,,0.1,1388.81,
63.46,1193.46,0.04,10.02,0,,0.08,63.58,,166.95,0,3.62,,49625.19,18887.98,28.60926,-80.79323,,,,,,,,,,,,0.09,1370.69,
64.48,1184.3,0.04,9.98,0,,0.08,63.37,,166.95,0,3.6,,50710.05,19425.39,28.60929,-80.79874,,,,,,,,,,,,0.08,1354.12,
65.48,1175.37,0.03,9.95,0,,0.08,63.15,,166.96,0,3.58,,51763.58,19952.07,28.60932,-80.80413,,,,,,,,,,,,0.07,1339.49,
66.48,1166.5,0.03,9.92,0,,0.08,62.94,,166.96,0,3.57,,52807.18,20478.57,28.60934,-80.80953,,,,,,,,,,,,0.06,1326.22,
67.48,1157.67,0.03,9.89,0,,0.08,62.72,,166.96,0,3.55,,53840.88,21004.91,28.60937,-80.81492,,,,,,,,,,,,0.05,1314.03,
68.48,1148.89,0.02,9.86,0,,0.08,62.5,,166.97,0,3.54,,54864.7,21531.1,28.6094,-80.82031,,,,,,,,,,,,0.04,1302.25,
69.48,1140.15,0.02,9.84,0,,0.08,62.27,,166.97,0,3.53,,55878.68,22057.16,28.60943,-80.8257,,,,,,,,,,,,0.04,1290.85,
70.5,1131.28,0.02,9.82,0,,0.08,62.04,,166.98,0,3.53,,56902.82,22593.6,28.60945,-80.83119,,,,,,,,,,,,0.03,1279.77,
71.52,1122.44,0.02,9.8,0,,0.08,61.8,,166.98,0,3.52,,57916.75,23129.91,28.60948,-80.83669,,,,,,,,,,,,0.03,1269.09,
72.54,1113.65,0.02,9.78,0,,0.08,61.56,,166.99,0,3.51,,58920.5,23666.11,28.60951,-80.84218,,,,,,,,,,,,0.03,1258.69,
73.54,1105.06,0.01,9.77,0,,0.08,61.32,,166.99,-0.01,3.51,,59894.71,24191.68,28.60954,-80.84756,,,,,,,,,,,,0.02,1248.64,
74.54,1096.51,0.01,9.76,0,,0.08,61.08,,167,-0.01,3.5,,60859.15,24717.15,28.60956,-80.85295,,,,,,,,,,,,0.02,1238.61,
75.56,1087.82,0.01,9.74,0,,0.08,60.83,,167,-0.01,3.5,,61832.84,25253.04,28.60959,-80.85844,,,,,,,,,,,,0.02,1228.31,
76.58,1079.16,0.01,9.73,0,,0.08,60.57,,167.01,-0.01,3.49,,62796.41,25788.82,28.60962,-80.86392,,,,,,,,,,,,0.02,1217.96,
77.58,1070.7,0.01,9.72,0,,0.08,60.32,,167.01,-0.01,3.48,,63731.26,26314.01,28.60964,-80.8693,,,,,,,,,,,,0.01,1207.74,
78.58,1062.28,0.01,9.71,0,,0.08,60.06,,167.01,-0.01,3.48,,64656.41,26839.13,28.60967,-80.87468,,,,,,,,,,,,0.01,1197.45,
79.6,1053.72,0.01,9.7,0,,0.08,59.79,,167.02,-0.01,3.47,,65590.06,27374.66,28.6097,-80.88017,,,,,,,,,,,,0.01,1187.12,
80.6,1045.37,0.01,9.69,0,,0.08,59.53,,167.02,-0.02,3.46,,66495.62,27899.61,28.60973,-80.88555,,,,,,,,,,,,0.01,1177.2,
81.62,1036.87,0.01,9.69,0,,0.08,59.25,,167.03,-0.02,3.46,,67409.32,28434.99,28.60975,-80.89103,,,,,,,,,,,,0.01,1167.21,
82.64,1028.41,0.01,9.68,0,,0.08,58.98,,167.03,-0.02,3.45,,68312.95,28970.3,28.60978,-80.89652,,,,,,,,,,,,0.01,1157.23,
83.64,1020.15,0.01,9.67,0,,0.08,58.7,,167.04,-0.03,3.45,,69189.1,29495.05,28.60981,-80.90189,,,,,,,,,,,,0.01,1147.36,
84.64,1011.92,0.01,9.66,0,,0.08,58.42,,167.04,-0.03,3.44,,70055.59,30019.73,28.60983,-80.90727,,,,,,,,,,,,0.01,1137.33,
85.66,1003.56,0.01,9.66,0,,0.08,58.13,,167.04,-0.04,3.43,,70929.47,30554.85,28.60986,-80.91275,,,,,,,,,,,,0,1126.84,
86.68,995.22,0.01,9.65,0,,0.08,57.84,,167.05,-0.04,3.42,,71793.31,31089.9,28.60989,-80.91823,,,,,,,,,,,,0,1116.02,
87.7,986.93,0,9.65,0,,0.08,57.54,,167.05,-0.05,3.41,,72647.12,31624.9,28.60992,-80.92371,,,,,,,,,,,,0,1104.81,
88.7,978.82,0,9.64,0,,0.08,57.24,,167.06,-0.06,3.4,,73474.45,32149.35,28.60994,-80.92908,,,,,,,,,,,,0,1093.45,
89.7,970.75,0,9.64,0,,0.08,56.94,,167.06,-0.06,3.38,,74292.15,32673.74,28.60997,-80.93445,,,,,,,,,,,,0,1081.99,
90.72,962.55,0,9.63,0,,0.08,56.63,,167.07,-0.07,3.37,,75116.29,33208.57,28.61,-80.93993,,,,,,,,,,,,0,1070.23,
91.74,954.39,0,9.63,0,,0.08,56.32,,167.07,-0.08,3.35,,75930.41,33743.35,28.61002,-80.94541,,,,,,,,,,,,0,1058.2,
92.76,946.26,0,9.63,0,,0.08,56,,167.07,-0.1,3.33,,76734.53,34278.08,28.61005,-80.95089,,,,,,,,,,,,0,1045.93,
93.78,938.16,0,9.62,0,,0.08,55.68,,167.08,-0.11,3.31,,77528.64,34812.75,28.61008,-80.95636,,,,,,,,,,,,0,1033.49,
94.8,930.1,0,9.62,0,,0.08,55.35,,167.08,-0.12,3.29,,78312.76,35347.38,28.6101,-80.96184,,,,,,,,,,,,0,1020.96,
95.8,922.24,0,9.61,0,,0.08,55.02,,167.09,-0.14,3.27,,79071.79,35871.48,28.61013,-80.96721,,,,,,,,,,,,0,1008.65,
96.8,914.41,0,9.61,0,,0.08,54.7,,167.09,-0.16,3.25,,79821.22,36395.53,28.61016,-80.97258,,,,,,,,,,,,0,996.37,
97.8,906.62,0,9.61,0,,0.08,54.36,,167.1,-0.18,3.23,,80561.05,36919.54,28.61018,-80.97795,,,,,,,,,,,,0,984.17,
98.8,898.87,0,9.6,0,,0.08,54.03,,167.1,-0.2,3.2,,81291.29,37443.5,28.61021,-80.98331,,,,,,,,,,,,0,972.09,
99.8,891.16,0,9.6,0,,0.08,53.69,,167.11,-0.23,3.18,,82011.93,37967.43,28.61024,-80.98868,,,,,,,,,,,,0,960.16,
100.8,883.49,0,9.6,0,,0.08,53.34,,167.11,-0.25,3.16,,82722.99,38491.32,28.61026,-80.99405,,,,,,,,,,,,0,948.41,
101.8,875.86,0,9.59,0,,0.08,53,,167.11,-0.28,3.13,,83424.46,39015.16,28.61029,-80.99941,,,,,,,,,,,,0,936.86,
102.82,868.11,0,9.59,0,,0.08,52.64,,167.12,-0.31,3.11,,84130.09,39549.45,28.61032,-81.00489,,,,,,,,,,,,0,925.31,
103.84,860.42,0,9.59,0,,0.08,52.28,,167.12,-0.35,3.08,,84825.75,40083.7,28.61034,-81.01036,,,,,,,,,,,,0,913.99,
104.86,852.76,0,9.58,0,,0.08,51.91,,167.13,-0.39,3.06,,85511.45,40617.91,28.61037,-81.01583,,,,,,,,,,,,0,902.92,
105.86,845.31,0,9.58,0,,0.08,51.55,,167.13,-0.43,3.04,,86174.03,41141.61,28.6104,-81.0212,,,,,,,,,,,,0,892.28,
106.88,837.74,0,9.58,0,,0.08,51.18,,167.13,-0.48,3.01,,86840.01,41675.75,28.61042,-81.02667,,,,,,,,,,,,0,881.57,
107.88,830.38,0,9.58,0,,0.08,50.81,,167.14,-0.53,2.99,,87483.27,42199.38,28.61045,-81.03203,,,,,,,,,,,,0,871.22,
108.88,823.06,0,9.57,0,,0.08,50.44,,167.14,-0.59,2.97,,88116.96,42722.98,28.61048,-81.0374,,,,,,,,,,,,0,861.01,
109.88,815.79,0,9.57,0,,0.08,50.07,,167.15,-0.64,2.94,,88741.09,43246.55,28.6105,-81.04276,,,,,,,,,,,,0,850.96,
110.9,808.42,0,9.57,0,,0.08,49.68,,167.15,-0.71,2.92,,89367.85,43780.56,28.61053,-81.04823,,,,,,,,,,,,0,840.89,
111.9,801.25,0,9.57,0,,0.08,49.3,,167.16,-0.78,2.89,,89972.67,44304.07,28.61056,-81.05359,,,,,,,,,,,,0,831.2,
112.9,794.13,0,9.56,0,,0.08,48.92,,167.16,-0.85,2.87,,90567.93,44827.55,28.61058,-81.05896,,,,,,,,,,,,0,821.71,
113.9,787.07,0,9.56,0,,0.08,48.53,,167.16,-0.93,2.84,,91153.65,45351,28.61061,-81.06432,,,,,,,,,,,,0,812.39,
114.9,780.06,0,9.56,0,,0.08,48.14,,167.17,-1.01,2.82,,91729.81,45874.42,28.61063,-81.06968,,,,,,,,,,,,0,803.21,
115.92,772.97,0,9.56,0,,0.08,47.75,,167.17,-1.1,2.79,,92307.65,46408.29,28.61066,-81.07515,,,,,,,,,,,,0,794,
116.92,766.07,0,9.55,0,,0.08,47.35,,167.17,-1.2,2.77,,92864.53,46931.65,28.61069,-81.08051,,,,,,,,,,,,0,785.11,
117.92,759.23,0,9.55,0,,0.08,46.96,,167.18,-1.3,2.74,,93411.86,47454.99,28.61071,-81.08587,,,,,,,,,,,,0,776.38,
118.92,752.46,0,9.55,0,,0.08,46.56,,167.18,-1.41,2.71,,93949.65,47978.31,28.61074,-81.09123,,,,,,,,,,,,0,767.81,
119.92,745.74,0,9.55,0,,0.08,46.16,,167.19,-1.52,2.68,,94477.89,48501.6,28.61077,-81.09659,,,,,,,,,,,,0,759.42,
120.92,739.09,0,9.55,0,,0.08,45.75,,167.19,-1.64,2.65,,94996.6,49024.87,28.61079,-81.10195,,,,,,,,,,,,0,751.2,
121.92,732.5,0,9.54,0,,0.08,45.35,,167.19,-1.77,2.63,,95505.77,49548.11,28.61082,-81.10731,,,,,,,,,,,,0,743.16,
122.92,725.98,0,9.54,0,,0.08,44.94,,167.2,-1.9,2.6,,96005.41,50071.33,28.61084,-81.11267,,,,,,,,,,,,0,735.31,
123.92,719.53,0,9.54,0,,0.08,44.53,,167.2,-2.05,2.57,,96495.51,50594.53,28.61087,-81.11803,,,,,,,,,,,,0,727.64,
124.92,713.15,0,9.54,0,,0.08,44.12,,167.2,-2.2,2.54,,96976.09,51117.7,28.6109,-81.12339,,,,,,,,,,,,0,720.16,
125.92,706.84,0,9.54,0,,0.08,43.7,,167.21,-2.35,2.51,,97447.13,51640.86,28.61092,-81.12875,,,,,,,,,,,,0,712.87,
126.92,700.6,0,9.54,0,,0.08,43.28,,167.21,-2.52,2.48,,97908.64,52163.99,28.61095,-81.13411,,,,,,,,,,,,0,705.76,
127.92,694.44,0,9.53,0,,0.08,42.87,,167.22,-2.69,2.45,,98360.63,52687.1,28.61098,-81.13947,,,,,,,,,,,,0,698.82,
128.94,688.23,0,9.53,0,,0.08,42.44,,167.22,-2.88,2.42,,98811.85,53220.66,28.611,-81.14493,,,,,,,,,,,,0,691.93,
129.96,682.11,0,9.53,0,,0.08,42.01,,167.22,-3.08,2.39,,99253.15,53754.19,28.61103,-81.1504,,,,,,,,,,,,0,685.21,
130.98,676.08,0,9.53,0,,0.08,41.57,,167.23,-3.28,2.37,,99684.55,54287.7,28.61105,-81.15586,,,,,,,,,,,,0,678.67,
132,670.13,0,9.53,0,,0.08,41.14,,167.23,-3.49,2.34,,100106.05,54821.2,28.61108,-81.16133,,,,,,,,,,,,0,672.29,
133,664.38,0,9.53,0,,0.08,40.71,,167.23,-3.71,2.31,,100509.66,55344.22,28.61111,-81.16669,,,,,,,,,,,,0,666.19,
134,658.72,0,9.53,0,,0.08,40.28,,167.24,-3.94,2.28,,100903.76,55867.21,28.61113,-81.17205,,,,,,,,,,,,0,660.24,
135,653.15,0,9.53,0,,0.08,39.85,,167.24,-4.18,2.26,,101288.34,56390.2,28.61116,-81.1774,,,,,,,,,,,,0,654.43,
136.02,647.57,0,9.52,0,,0.08,39.41,,167.24,-4.43,2.23,,101670.81,56923.62,28.61119,-81.18287,,,,,,,,,,,,0,648.65,
137.02,642.19,0,9.52,0,,0.08,38.97,,167.25,-4.68,2.21,,102036.17,57446.57,28.61121,-81.18822,,,,,,,,,,,,0,643.11,
138.04,636.8,0,9.52,0,,0.08,38.53,,167.25,-4.95,2.18,,102399.04,57979.96,28.61124,-81.19369,,,,,,,,,,,,0,637.6,
139.04,631.62,0,9.52,0,,0.08,38.09,,167.25,-5.23,2.16,,102745.19,58502.88,28.61126,-81.19904,,,,,,,,,,,,0,632.33,
140.04,626.54,0,9.52,0,,0.08,37.65,,167.26,-5.52,2.13,,103081.83,59025.78,28.61129,-81.2044,,,,,,,,,,,,0,627.18,
141.04,621.56,0,9.52,0,,0.08,37.21,,167.26,-5.81,2.11,,103408.95,59548.67,28.61132,-81.20976,,,,,,,,,,,,0,622.15,
142.04,616.69,0,9.52,0,,0.08,36.77,,167.26,-6.12,2.09,,103726.57,60071.55,28.61134,-81.21511,,,,,,,,,,,,0,617.25,
143.04,611.93,0,9.52,0,,0.08,36.32,,167.26,-6.43,2.06,,104034.68,60594.41,28.61137,-81.22047,,,,,,,,,,,,0,612.46,
144.06,607.19,0,9.52,0,,0.08,35.87,,167.27,-6.77,2.04,,104339.16,61127.72,28.61139,-81.22593,,,,,,,,,,,,0,607.7,
145.06,602.66,0,9.51,0,,0.08,35.42,,167.27,-7.1,2.02,,104628.07,61650.55,28.61142,-81.23129,,,,,,,,,,,,0,603.16,
146.06,598.25,0,9.51,0,,0.08,34.97,,167.27,-7.45,2,,104907.48,62173.37,28.61145,-81.23665,,,,,,,,,,,,0,598.73,
147.06,593.95,0,9.51,0,,0.08,34.52,,167.28,-7.8,1.98,,105177.38,62696.19,28.61147,-81.242,,,,,,,,,,,,0,594.42,
148.06,589.78,0,9.51,0,,0.08,34.07,,167.28,-8.17,1.96,,105437.78,63218.99,28.6115,-81.24736,,,,,,,,,,,,0,590.23,
149.06,585.73,0,9.51,0,,0.08,33.62,,167.28,-8.55,1.94,,105688.67,63741.77,28.61152,-81.25271,,,,,,,,,,,,0,586.17,
150.06,581.81,0,9.51,0,,0.08,33.16,,167.29,-8.93,1.92,,105930.07,64264.55,28.61155,-81.25807,,,,,,,,,,,,0,582.23,
151.08,577.94,0,9.51,0,,0.08,32.7,,167.29,-9.34,1.9,,106166.51,64797.78,28.61157,-81.26353,,,,,,,,,,,,0,578.35,
152.08,574.28,0,9.51,0,,0.08,32.24,,167.29,-9.74,1.88,,106388.71,65320.53,28.6116,-81.26889,,,,,,,,,,,,0,574.68,
153.1,570.69,0,9.51,0,,0.08,31.77,,167.29,-10.16,1.87,,106605.58,65853.74,28.61163,-81.27435,,,,,,,,,,,,0,571.07,
154.1,567.31,0,9.51,0,,0.08,31.31,,167.3,-10.59,1.85,,106808.59,66376.48,28.61165,-81.2797,,,,,,,,,,,,0,567.67,
155.1,564.06,0,9.51,0,,0.08,30.85,,167.3,-11.02,1.84,,107002.12,66899.21,28.61168,-81.28506,,,,,,,,,,,,0,564.41,
156.12,560.9,0,9.51,0,,0.08,30.38,,167.3,-11.47,1.82,,107189.72,67432.38,28.6117,-81.29052,,,,,,,,,,,,0,561.23,
157.12,557.95,0,9.51,0,,0.08,29.91,,167.31,-11.92,1.81,,107364.06,67955.1,28.61173,-81.29587,,,,,,,,,,,,0,558.26,
158.12,555.14,0,9.5,0,,0.08,29.44,,167.31,-12.38,1.79,,107528.9,68477.8,28.61176,-81.30123,,,,,,,,,,,,0,555.44,
159.14,552.43,0,9.5,0,,0.08,28.97,,167.31,-12.85,1.78,,107687.26,69010.96,28.61178,-81.30669,,,,,,,,,,,,0,552.71,
160.14,549.92,0,9.5,0,,0.08,28.5,,167.31,-13.32,1.77,,107832.92,69533.65,28.61181,-81.31204,,,,,,,,,,,,0,550.19,
161.14,547.57,0,9.5,0,,0.08,28.03,,167.32,-13.8,1.76,,107969.09,70056.34,28.61183,-81.3174,,,,,,,,,,,,0,547.82,
162.14,545.37,0,9.5,0,,0.08,27.56,,167.32,-14.29,1.75,,108095.76,70579.02,28.61186,-81.32275,,,,,,,,,,,,0,545.6,
163.14,543.33,0,9.5,0,,0.08,27.08,,167.32,-14.78,1.74,,108212.94,71101.69,28.61188,-81.32811,,,,,,,,,,,,0,543.54,
164.14,541.45,0,9.5,0,,0.08,26.61,,167.33,-15.28,1.73,,108320.63,71624.36,28.61191,-81.33346,,,,,,,,,,,,0,541.64,
165.14,539.72,0,9.5,0,,0.08,26.13,,167.33,-15.78,1.72,,108418.82,72147.02,28.61194,-81.33882,,,,,,,,,,,,0,539.9,
166.14,538.16,0,9.5,0,,0.08,25.65,,167.33,-16.29,1.71,,108507.52,72669.68,28.61196,-81.34417,,,,,,,,,,,,0,538.32,
167.14,536.76,0,9.5,0,,0.08,25.18,,167.33,-16.8,1.7,,108586.73,73192.34,28.61199,-81.34952,,,,,,,,,,,,0,536.91,
168.14,535.53,0,9.5,0,,0.08,24.69,,167.34,-17.32,1.7,,108656.45,73714.99,28.61201,-81.35488,,,,,,,,,,,,0,535.66,
169.16,534.44,0,9.5,0,,0.08,24.2,,167.34,-17.85,1.69,,108717.78,74248.09,28.61204,-81.36034,,,,,,,,,,,,0,534.55,
170.16,533.54,0,9.5,0,,0.08,23.72,,167.34,-18.37,1.69,,108768.33,74770.74,28.61206,-81.36569,,,,,,,,,,,,0,533.63,
171.16,532.81,0,9.5,0,,0.08,23.23,,167.34,-18.89,1.69,,108809.38,75293.38,28.61209,-81.37105,,,,,,,,,,,,0,532.88,
172.16,532.24,0,9.5,0,,0.08,22.75,,167.35,-19.41,1.68,,108840.94,75816.02,28.61212,-81.3764,,,,,,,,,,,,0,532.3,
173.16,531.85,0,9.5,0,,0.08,22.26,,167.35,-19.93,1.68,,108863.01,76338.66,28.61214,-81.38176,,,,,,,,,,,,0,531.88,
174.16,531.62,0,9.5,0,,0.08,21.77,,167.35,-20.46,1.68,,108875.59,76861.29,28.61217,-81.38711,,,,,,,,,,,,0,531.64,
175.18,531.56,0,9.5,0,,0.08,21.26,,167.35,-20.99,1.68,,108878.65,77394.38,28.61219,-81.39257,,,,,,,,,,,,0,531.56,
176.2,531.68,0,9.5,0,,0.08,20.76,,167.36,-21.52,1.68,,108871.83,77927.46,28.61222,-81.39803,,,,,,,,,,,,0,531.66,
177.2,531.97,0,9.5,0,,0.08,20.26,,167.36,-22.03,1.68,,108855.56,78450.09,28.61224,-81.40339,,,,,,,,,,,,0,531.93,
178.2,532.42,0,9.5,0,,0.08,19.77,,167.36,-22.55,1.68,,108829.79,78972.73,28.61227,-81.40874,,,,,,,,,,,,0,532.37,
179.2,533.05,0,9.5,0,,0.08,19.27,,167.36,-23.06,1.69,,108794.54,79495.36,28.61229,-81.41409,,,,,,,,,,,,0,532.97,
180.22,533.86,0,9.5,0,,0.08,18.76,,167.37,-23.58,1.69,,108748.8,80028.44,28.61232,-81.41955,,,,,,,,,,,,0,533.76,
181.22,534.82,0,9.5,0,,0.08,18.25,,167.37,-24.08,1.69,,108694.37,80551.07,28.61235,-81.42491,,,,,,,,,,,,0,534.7,
182.22,535.95,0,9.5,0,,0.08,17.75,,167.37,-24.57,1.7,,108630.46,81073.71,28.61237,-81.43026,,,,,,,,,,,,0,535.81,
183.22,537.24,0,9.5,0,,0.08,17.24,,167.37,-25.06,1.71,,108557.05,81596.34,28.6124,-81.43562,,,,,,,,,,,,0,537.09,
184.24,538.72,0,9.5,0,,0.08,16.72,,167.37,-25.55,1.71,,108472.39,82129.43,28.61242,-81.44108,,,,,,,,,,,,0,538.56,
185.26,540.38,0,9.5,0,,0.08,16.2,,167.38,-26.04,1.72,,108377.86,82662.52,28.61245,-81.44654,,,,,,,,,,,,0,540.19,
186.26,542.17,0,9.5,0,,0.08,15.68,,167.38,-26.5,1.73,,108275.59,83185.16,28.61247,-81.45189,,,,,,,,,,,,0,541.96,
187.26,544.11,0,9.5,0,,0.08,15.16,,167.38,-26.96,1.74,,108163.84,83707.8,28.6125,-81.45725,,,,,,,,,,,,0,543.89,
188.26,546.21,0,9.5,0,,0.08,14.64,,167.38,-27.41,1.75,,108042.59,84230.45,28.61252,-81.4626,,,,,,,,,,,,0,545.97,
189.26,548.47,0,9.5,0,,0.08,14.12,,167.39,-27.84,1.76,,107911.84,84753.1,28.61255,-81.46795,,,,,,,,,,,,0,548.22,
190.26,550.88,0,9.5,0,,0.08,13.6,,167.39,-28.27,1.77,,107771.61,85275.75,28.61258,-81.47331,,,,,,,,,,,,0,550.61,
191.26,553.45,0,9.5,0,,0.08,13.07,,167.39,-28.69,1.78,,107621.88,85798.41,28.6126,-81.47866,,,,,,,,,,,,0,553.16,
192.26,556.16,0,9.5,0,,0.08,12.54,,167.39,-29.09,1.8,,107462.65,86321.07,28.61263,-81.48402,,,,,,,,,,,,0,555.86,
193.28,559.08,0,9.5,0,,0.08,11.99,,167.39,-29.49,1.81,,107290.46,86854.18,28.61265,-81.48948,,,,,,,,,,,,0,558.76,
194.28,562.1,0,9.5,0,,0.08,11.46,,167.4,-29.87,1.82,,107112.06,87376.85,28.61268,-81.49483,,,,,,,,,,,,0,561.76,
195.28,565.25,0,9.51,0,,0.08,10.92,,167.4,-30.23,1.84,,106924.16,87899.53,28.6127,-81.50019,,,,,,,,,,,,0,564.9,
196.28,568.54,0,9.51,0,,0.08,10.37,,167.4,-30.59,1.85,,106726.76,88422.21,28.61273,-81.50554,,,,,,,,,,,,0,568.18,
197.28,571.98,0,9.51,0,,0.08,9.82,,167.4,-30.92,1.87,,106519.87,88944.89,28.61275,-81.5109,,,,,,,,,,,,0,571.59,
198.28,575.55,0,9.51,0,,0.08,9.27,,167.4,-31.25,1.89,,106303.48,89467.58,28.61278,-81.51625,,,,,,,,,,,,0,575.15,
199.28,579.25,0,9.51,0,,0.08,8.72,,167.41,-31.56,1.91,,106077.6,89990.28,28.6128,-81.52161,,,,,,,,,,,,0,578.84,
200.3,583.16,0,9.51,0,,0.08,8.14,,167.41,-31.86,1.92,,105837.41,90523.43,28.61283,-81.52707,,,,,,,,,,,,0,582.73,
201.3,587.13,0,9.51,0,,0.08,7.58,,167.41,-32.13,1.94,,105592.33,91046.14,28.61285,-81.53242,,,,,,,,,,,,0,586.68,
202.3,591.22,0,9.51,0,,0.08,7.01,,167.41,-32.4,1.96,,105337.76,91568.86,28.61288,-81.53778,,,,,,,,,,,,0,590.76,
203.3,595.43,0,9.51,0,,0.08,6.44,,167.41,-32.64,1.98,,105073.69,92091.58,28.6129,-81.54313,,,,,,,,,,,,0,594.96,
204.3,599.77,0,9.51,0,,0.08,5.86,,167.42,-32.87,2,,104800.11,92614.32,28.61293,-81.54849,,,,,,,,,,,,0,599.28,
205.3,604.22,0,9.51,0,,0.08,5.27,,167.42,-33.08,2.02,,104517.04,93137.05,28.61296,-81.55384,,,,,,,,,,,,0,603.72,
206.3,608.79,0,9.51,0,,0.08,4.68,,167.42,-33.27,2.05,,104224.46,93659.8,28.61298,-81.5592,,,,,,,,,,,,0,608.28,
207.3,613.47,0,9.51,0,,0.08,4.08,,167.42,-33.45,2.07,,103922.38,94182.56,28.61301,-81.56455,,,,,,,,,,,,0,612.96,
208.3,618.26,0,9.51,0,,0.08,3.47,,167.42,-33.6,2.09,,103610.79,94705.32,28.61303,-81.56991,,,,,,,,,,,,0,617.76,
209.3,623.16,0,9.51,0,,0.08,2.86,,167.42,-33.74,2.11,,103289.7,95228.09,28.61306,-81.57526,,,,,,,,,,,,0,622.67,
210.3,628.17,0,9.52,0,,0.08,2.24,,167.42,-33.86,2.14,,102959.11,95750.88,28.61308,-81.58062,,,,,,,,,,,,0,627.71,
211.32,633.38,0,9.52,0,,0.08,1.59,,167.43,-33.96,2.16,,102612.11,96284.12,28.61311,-81.58608,,,,,,,,,,,,0,632.97,
212.32,638.59,0,9.52,0,,0.08,0.95,,167.43,-34.03,2.18,,102262.31,96806.92,28.61313,-81.59144,,,,,,,,,,,,0,638.26,
213.32,643.9,0,9.52,0,,0.08,0.3,,167.43,-34.09,2.21,,101903,97329.74,28.61316,-81.59679,,,,,,,,,,,,0,643.67,
214.32,649.31,0,9.52,0,,0.08,-0.36,,167.43,-34.12,2.23,,101534.19,97852.56,28.61318,-81.60215,,,,,,,,,,,,0,649.22,
215.32,654.81,0,9.52,0,,0.08,-1.03,,167.43,-34.13,2.26,,101155.86,98375.39,28.61321,-81.6075,,,,,,,,,,,,0,654.9,
216.32,660.4,0,9.52,0,,0.08,-1.72,,167.43,-34.11,2.29,,100768.02,98898.23,28.61323,-81.61286,,,,,,,,,,,,0,660.71,
217.32,666.08,0,9.52,0,,0.08,-2.41,,167.43,-34.07,2.31,,100370.68,99421.08,28.61326,-81.61822,,,,,,,,,,,,0,666.67,
218.32,671.84,0,9.52,0,,0.08,-3.13,,167.43,-34.01,2.34,,99963.82,99943.94,28.61328,-81.62357,,,,,,,,,,,,0,672.78,
219.34,677.81,0,9.52,0,,0.08,-3.87,,167.43,-33.91,2.37,,99539.02,100477.28,28.61331,-81.62904,,,,,,,,,,,,0,679.17,
220.34,683.75,0,9.52,0,,0.08,-4.62,,167.43,-33.79,2.4,,99112.94,101000.16,28.61333,-81.63439,,,,,,,,,,,,0,685.6,
221.36,689.88,0,9.52,0,,0.08,-5.4,,167.43,-33.64,2.43,,98668.54,101533.52,28.61336,-81.63986,,,,,,,,,,,,0,692.32,
222.36,695.98,0,9.53,0,,0.08,-6.19,,167.43,-33.46,2.46,,98223.24,102056.43,28.61338,-81.64521,,,,,,,,,,,,0,699.08,
223.36,702.15,0,9.53,0,,0.08,-6.99,,167.43,-33.24,2.48,,97768.42,102579.35,28.61341,-81.65057,,,,,,,,,,,,0,706.01,
224.36,708.39,0,9.53,0,,0.08,-7.83,,167.43,-33,2.51,,97304.09,103102.28,28.61343,-81.65593,,,,,,,,,,,,0,713.12,
225.38,714.84,0,9.53,0,,0.08,-8.7,,167.43,-32.71,2.54,,96820.66,103635.68,28.61346,-81.66139,,,,,,,,,,,,0,720.55,
226.4,721.36,0,9.53,0,,0.08,-9.61,,167.43,-32.38,2.57,,96327.33,104169.1,28.61349,-81.66686,,,,,,,,,,,,0,728.18,
227.4,727.82,0,9.53,0,,0.08,-10.53,,167.42,-32.01,2.6,,95834.06,104692.07,28.61351,-81.67221,,,,,,,,,,,,0,735.85,
228.4,734.34,0,9.53,0,,0.08,-11.48,,167.42,-31.6,2.63,,95331.27,105215.05,28.61354,-81.67757,,,,,,,,,,,,0,743.7,
229.4,740.93,0,9.53,0,,0.08,-12.47,,167.42,-31.15,2.66,,94818.95,105738.04,28.61356,-81.68293,,,,,,,,,,,,0,751.73,
230.42,747.72,0,9.53,0,,0.08,-13.53,,167.41,-30.63,2.69,,94286.58,106271.51,28.61359,-81.68839,,,,,,,,,,,,0,760.11,
231.42,754.44,0,9.53,0,,0.08,-14.6,,167.41,-30.08,2.71,,93755.03,106794.53,28.61361,-81.69375,,,,,,,,,,,,0,768.49,
232.42,761.21,0,9.53,0,,0.08,-15.73,,167.4,-29.46,2.74,,93213.95,107317.56,28.61364,-81.69911,,,,,,,,,,,,0,777.03,
233.42,768.05,0,9.53,0,,0.08,-16.91,,167.4,-28.78,2.77,,92663.35,107840.61,28.61366,-81.70447,,,,,,,,,,,,0,785.74,
234.42,774.94,0,9.53,0,,0.08,-18.15,,167.39,-28.04,2.79,,92103.22,108363.67,28.61369,-81.70983,,,,,,,,,,,,0,794.6,
235.42,781.89,0,9.53,0,,0.08,-19.45,,167.38,-27.22,2.82,,91533.57,108886.74,28.61371,-81.71519,,,,,,,,,,,,0,803.6,
236.42,788.89,0,9.53,0,,0.08,-20.82,,167.37,-26.33,2.84,,90954.39,109409.83,28.61374,-81.72054,,,,,,,,,,,,0,812.73,
237.42,795.94,0,9.54,0,,0.08,-22.27,,167.36,-25.36,2.87,,90365.68,109932.93,28.61376,-81.7259,,,,,,,,,,,,0,822.01,
238.42,803.05,0,9.54,0,,0.08,-23.8,,167.35,-24.3,2.89,,89767.45,110456.04,28.61379,-81.73126,,,,,,,,,,,,0,831.47,
239.42,810.2,0,9.54,0,,0.08,-25.42,,167.33,-23.15,2.92,,89159.69,110979.17,28.61381,-81.73662,,,,,,,,,,,,0,841.11,
240.44,817.55,0,9.54,0,,0.08,-27.16,,167.32,-21.87,2.94,,88529.96,111512.77,28.61384,-81.74209,,,,,,,,,,,,0,851.14,
241.46,824.95,0,9.54,0,,0.08,-29.02,,167.31,-20.47,2.97,,87890.31,112046.4,28.61386,-81.74755,,,,,,,,,,,,0,861.34,
242.48,832.39,0,9.54,0,,0.08,-30.98,,167.29,-18.97,2.99,,87240.74,112580.03,28.61389,-81.75302,,,,,,,,,,,,0,871.69,
243.48,839.74,0,9.54,0,,0.08,-33.02,,167.27,-17.37,3.01,,86594.29,113103.22,28.61391,-81.75838,,,,,,,,,,,,0,881.98,
244.48,847.13,0,9.54,0,,0.08,-35.18,,167.25,-15.65,3.04,,85938.31,113626.43,28.61394,-81.76374,,,,,,,,,,,,0,892.4,
245.48,854.56,0,9.54,0,,0.08,-37.46,,167.23,-13.81,3.06,,85272.79,114149.65,28.61396,-81.7691,,,,,,,,,,,,0,902.98,
246.5,862.19,0,9.55,0,,0.08,-39.91,,167.21,-11.8,3.08,,84584.13,114683.35,28.61399,-81.77457,,,,,,,,,,,,0,914.01,
247.5,869.71,0,9.55,0,,0.08,-42.44,,167.19,-9.71,3.11,,83899.35,115206.61,28.61401,-81.77993,,,,,,,,,,,,0,925.05,
248.5,877.27,0,9.55,0,,0.08,-45.07,,167.17,-7.51,3.13,,83205.02,115729.87,28.61404,-81.78529,,,,,,,,,,,,0,936.31,
249.5,884.87,0,9.55,0,,0.08,-47.81,,167.15,-5.21,3.15,,82501.16,116253.16,28.61406,-81.79065,,,,,,,,,,,,0,947.77,
250.5,892.51,0,9.56,0,,0.08,-50.62,,167.13,-2.83,3.18,,81787.75,116776.45,28.61409,-81.79601,,,,,,,,,,,,0,959.43,
251.5,900.18,0,9.56,0,,0.08,-53.47,,167.12,-0.39,3.2,,81064.79,117299.76,28.61411,-81.80137,,,,,,,,,,,,0,971.25,
252.5,907.89,0,9.56,0,,0.08,-56.34,,167.1,2.05,3.22,,80332.29,117823.07,28.61414,-81.80673,,,,,,,,,,,,0,983.21,
253.5,915.63,0,9.57,0,,0.08,-59.16,,167.1,4.46,3.25,,79590.24,118346.39,28.61416,-81.81209,,,,,,,,,,,,0,995.27,
254.52,923.57,0,9.57,0,,0.08,-61.92,,167.1,6.8,3.27,,78823.5,118880.18,28.61419,-81.81756,,,,,,,,,,,,0,1007.63,
255.52,931.37,0,9.58,0,,0.08,-64.42,,167.11,8.91,3.29,,78062.14,119403.5,28.61421,-81.82292,,,,,,,,,,,,0,1019.76,
256.52,939.21,0.01,9.58,0,,0.08,-66.64,,167.14,10.74,3.31,,77291.23,119926.8,28.61424,-81.82828,,,,,,,,,,,,0,1031.82,
257.52,947.07,0.01,9.58,0,,0.08,-68.45,,167.2,12.17,3.33,,76510.75,120450.07,28.61426,-81.83365,,,,,,,,,,,,0,1043.77,
258.52,954.95,0.01,9.59,0,,0.08,-69.73,,167.27,13.1,3.35,,75720.7,120973.31,28.61429,-81.83901,,,,,,,,,,,,0,1055.53,
259.52,962.86,0.01,9.59,0,,0.08,-70.36,,167.36,13.39,3.36,,74921.09,121496.5,28.61431,-81.84437,,,,,,,,,,,,0,1067.03,
260.54,970.95,0.01,9.6,0,,0.08,-70.22,,167.46,12.93,3.38,,74095.62,122030.09,28.61434,-81.84983,,,,,,,,,,,,0,1078.5,
261.54,978.91,0.01,9.6,0,,0.08,-69.24,,167.55,11.66,3.39,,73276.66,122553.16,28.61436,-81.85519,,,,,,,,,,,,0,1089.69,
262.54,986.91,0.01,9.6,0,,0.08,-67.39,,167.6,9.54,3.4,,72448.13,123076.15,28.61439,-81.86055,,,,,,,,,,,,0,1100.74,
263.54,994.94,0.01,9.6,0,,0.08,-64.73,,167.62,6.64,3.41,,71610.02,123599.08,28.61441,-81.8659,,,,,,,,,,,,0,1111.42,
264.54,1003.01,0.01,9.59,0,,0.08,-61.42,,167.61,3.12,3.42,,70762.34,124121.97,28.61444,-81.87126,,,,,,,,,,,,0,1121.75,
265.54,1011.11,0.01,9.57,0,,0.08,-57.77,,167.58,-0.72,3.43,,69905.09,124644.83,28.61446,-81.87662,,,,,,,,,,,,0.01,1131.78,
266.54,1019.23,0.01,9.53,0,,0.08,-54.23,,167.53,-4.46,3.43,,69038.3,125167.7,28.61449,-81.88197,,,,,,,,,,,,0.01,1141.56,
267.54,1027.36,0.02,9.48,0,,0.08,-51.34,,167.48,-7.53,3.44,,68161.98,125690.6,28.61451,-81.88733,,,,,,,,,,,,0.01,1151.15,
268.54,1035.49,0.02,9.42,0,,0.08,-49.72,,167.42,-9.36,3.45,,67276.19,126213.57,28.61454,-81.89269,,,,,,,,,,,,0.01,1160.62,
269.54,1043.62,0.03,9.39,0,,0.08,-49.89,,167.36,-9.44,3.45,,66380.95,126736.65,28.61456,-81.89805,,,,,,,,,,,,0.01,1170.05,
270.54,1051.77,0.03,9.4,0,,0.08,-52.12,,167.31,-7.51,3.46,,65476.28,127259.84,28.61459,-81.90341,,,,,,,,,,,,0.01,1179.58,
271.54,1059.96,0.02,9.47,0,,0.08,-56.19,,167.25,-3.77,3.46,,64562.18,127783.12,28.61461,-81.90877,,,,,,,,,,,,0.01,1189.34,
272.54,1068.19,0.01,9.55,0,,0.08,-61.31,,167.23,0.97,3.47,,63638.59,128306.45,28.61463,-81.91413,,,,,,,,,,,,0.01,1199.26,
273.56,1076.6,0.02,9.62,0,,0.08,-66.16,,167.25,5.44,3.47,,62686.7,128840.2,28.61466,-81.9196,,,,,,,,,,,,0.02,1209.27,
274.56,1084.81,0.04,9.67,0,,0.08,-68.88,,167.35,7.82,3.48,,61743.8,129363.32,28.61468,-81.92496,,,,,,,,,,,,0.02,1218.92,
275.58,1093.18,0.05,9.68,0,,0.08,-68.26,,167.48,6.93,3.49,,60772.15,129896.6,28.61471,-81.93042,,,,,,,,,,,,0.02,1228.6,
276.6,1101.6,0.03,9.62,0,,0.08,-64.22,,167.53,2.73,3.49,,59790.52,130429.6,28.61474,-81.93588,,,,,,,,,,,,0.02,1238.26,
277.6,1109.9,0.02,9.46,0,,0.08,-58.81,,167.49,-2.79,3.5,,58818.49,130952,28.61476,-81.94123,,,,,,,,,,,,0.03,1247.79,
278.6,1118.16,0.06,9.22,0,,0.08,-55.18,,167.41,-6.53,3.5,,57837.04,131474.48,28.61478,-81.94658,,,,,,,,,,,,0.03,1257.35,
279.6,1126.38,0.07,9.15,0,,0.08,-56.15,,167.32,-5.77,3.51,,56846.33,131997.19,28.61481,-81.95194,,,,,,,,,,,,0.03,1267.01,
280.6,1134.67,0.03,9.39,0,,0.08,-61.63,,167.26,-0.62,3.51,,55846.36,132520.13,28.61483,-81.9573,,,,,,,,,,,,0.04,1277.08,
281.62,1143.13,0.06,9.67,0,,0.08,-67.63,,167.3,4.99,3.52,,54816.68,133053.49,28.61486,-81.96276,,,,,,,,,,,,0.04,1287.85,
282.64,1151.51,0.09,9.76,0,,0.08,-68.31,,167.44,5.37,3.53,,53777.03,133586.38,28.61488,-81.96822,,,,,,,,,,,,0.05,1298.75,
283.64,1159.78,0.03,9.51,0,,0.08,-62.81,,167.48,-0.23,3.54,,52748.09,134108.29,28.61491,-81.97357,,,,,,,,,,,,0.06,1309.85,
284.64,1168.04,0.09,8.95,0,,0.08,-57.8,,167.39,-5.29,3.55,,51709.78,134630.14,28.61493,-81.97891,,,,,,,,,,,,0.07,1321.88,
285.64,1176.22,0.09,8.96,0,,0.08,-60.54,,167.3,-2.78,3.57,,50662.43,135152.37,28.61496,-81.98426,,,,,,,,,,,,0.08,1334.93,
286.64,1184.47,0.08,9.62,0,,0.08,-67.59,,167.31,3.88,3.59,,49605.92,135674.76,28.61498,-81.98961,,,,,,,,,,,,0.09,1349.5,
287.64,1192.59,0.13,9.81,0,,0.08,-67.33,,167.44,3.36,3.62,,48539.91,136196.48,28.61501,-81.99496,,,,,,,,,,,,0.1,1365.43,
288.64,1200.78,0.09,8.92,0,,0.08,-60.43,,167.41,-3.57,3.65,,47464.45,136717.57,28.61503,-82.0003,,,,,,,,,,,,0.11,1383.16,
289.64,1208.83,0.14,8.62,0,,0.08,-61.97,,167.3,-2.18,3.68,,46380.11,137239.03,28.61506,-82.00564,,,,,,,,,,,,0.13,1402.3,
290.66,1217.06,0.17,9.84,0,,0.08,-68.73,,167.35,4.17,3.72,,45264.86,137771.04,28.61508,-82.01109,,,,,,,,,,,,0.15,1423.66,
291.68,1225.21,0.07,9.15,0,,0.08,-63.25,,167.42,-1.43,3.76,,44139.8,138301.94,28.61511,-82.01653,,,,,,,,,,,,0.17,1446.55,
292.68,1233.07,0.21,8.17,0,,0.08,-62.76,,167.31,-2.01,3.8,,43027.89,138822.46,28.61513,-82.02186,,,,,,,,,,,,0.2,1470.48,
293.68,1240.88,0.26,10.04,0,,0.08,-68.58,,167.38,3.43,3.84,,41907.32,139343.08,28.61516,-82.02719,,,,,,,,,,,,0.23,1495.9,
294.68,1248.53,0.22,7.93,0,,0.08,-61.95,,167.36,-3.22,3.89,,40777.6,139862.44,28.61518,-82.03251,,,,,,,,,,,,0.27,1522.26,
295.68,1255.9,0.18,8.99,0,,0.08,-68.07,,167.32,2.61,3.93,,39639.76,140382.18,28.61521,-82.03784,,,,,,,,,,,,0.31,1549.19,
296.68,1262.97,0.2,7.78,0,,0.08,-63.26,,167.37,-2.32,3.98,,38493.32,140900.56,28.61523,-82.04315,,,,,,,,,,,,0.36,1576.53,
297.68,1269.69,0.26,8.59,0,,0.08,-68.26,,167.33,2.43,4.02,,37339.22,141418.87,28.61526,-82.04846,,,,,,,,,,,,0.42,1594.59,
298.7,1276.09,0.41,6.22,0,,0.08,-63.5,,167.34,-2.41,4.06,,36153.92,141945.94,28.61528,-82.05386,,,,,,,,,,,,0.5,1600.68,
299.7,1281.85,0.51,9.52,0,,0.08,-67.36,,167.37,1.13,4.1,,34984.91,142462.14,28.61531,-82.05915,,,,,,,,,,,,0.59,1606.15,
300.72,1287.15,0.4,6.05,0,,0.08,-67.75,,167.31,1.41,4.14,,33785.6,142987.07,28.61533,-82.06453,,,,,,,,,,,,0.7,1611.18,
301.72,1291.55,0.64,4.14,0,,0.08,-65.33,,167.31,-1.12,4.18,,32603.67,143499.91,28.61535,-82.06978,,,,,,,,,,,,0.82,1615.41,
302.72,1295.13,0.58,4.28,0,,0.08,-65.13,,167.33,-1.52,4.22,,31416.58,144011,28.61538,-82.07502,,,,,,,,,,,,0.98,1618.87,
303.72,1297.66,0.7,5.67,0,,0.08,-65.81,,167.34,-1.05,4.25,,30225.17,144519.88,28.6154,-82.08023,,,,,,,,,,,,1.16,1621.35,
304.74,1298.96,0.83,5,0,,0.08,-66.04,,167.33,-0.99,4.28,,29006.55,145036.13,28.61543,-82.08552,,,,,,,,,,,,1.39,1622.7,
305.74,1298.74,0.99,2.9,0,,0.08,-66.29,,167.32,-0.88,4.3,,27809.81,145538.99,28.61545,-82.09067,,,,,,,,,,,,1.67,1622.66,
306.76,1296.71,1.22,2.65,0,,0.08,-67.48,,167.31,0.13,4.32,,26588.67,146048.02,28.61548,-82.09588,,,,,,,,,,,,2,1620.96,
307.76,1292.64,1.41,6.93,0,,0.08,-67.96,,167.32,0.4,4.32,,25392.79,146542.43,28.6155,-82.10095,,,,,,,,,,,,2.4,1617.37,
308.76,1286.15,1.66,8.11,0,,0.08,-67.36,,167.31,-0.33,4.33,,24200.32,147031.37,28.61552,-82.10596,,,,,,,,,,,,2.89,1611.54,
309.76,1276.82,1.96,11.22,0,,0.08,-67.97,,167.31,0.08,4.32,,23013.77,147514.04,28.61555,-82.1109,,,,,,,,,,,,3.47,1603.09,
310.76,1264.22,2.31,13.96,0,,0.08,-68.21,,167.3,0.17,4.3,,21835.96,147989.22,28.61557,-82.11577,,,,,,,,,,,,4.17,1591.58,
311.78,1247.5,2.72,17.93,0,,0.08,-68.31,,167.3,0.09,4.28,,20647.01,148464.9,28.61559,-82.12064,,,,,,,,,,,,5.04,1576.21,
312.78,1226.83,3.17,22.29,0,,0.08,-68.44,,167.3,0.05,4.24,,19497.38,148920.98,28.61562,-82.12532,,,,,,,,,,,,6.06,1557.07,
313.8,1200.94,3.66,27.12,0,,0.08,-68.54,,167.29,-0.02,4.17,,18345.45,149374.06,28.61564,-82.12996,,,,,,,,,,,,7.31,1532.93,
314.8,1170.64,4.17,31.98,0,,0.08,-68.74,,167.28,0.01,4.08,,17240.97,149804.68,28.61566,-82.13437,,,,,,,,,,,,8.75,1504.42,
315.82,1134.76,4.66,36.79,0,,0.08,-68.91,,167.27,0,3.96,,16144.56,150228.31,28.61569,-82.13871,,,,,,,,,,,,10.47,1450.03,
316.84,1094.31,5.1,41.07,0,,0.08,-69.1,,167.27,0,3.8,,15083.23,150634.55,28.61571,-82.14287,,,,,,,,,,,,12.45,1340.56,
317.84,1050.91,5.46,44.52,0,,0.08,-69.29,,167.26,0,3.62,,14080.7,151014.59,28.61573,-82.14676,,,,,,,,,,,,14.63,1232.11,
318.84,1004.56,5.74,47.25,0,,0.08,-69.48,,167.24,0,3.43,,13118.99,151375.54,28.61575,-82.15046,,,,,,,,,,,,17.04,1130.51,
319.84,956.03,5.94,49.18,0,,0.08,-69.69,,167.23,0,3.23,,12200.57,151716.65,28.61577,-82.15396,,,,,,,,,,,,19.66,1038.4,
320.84,906.13,6.05,50.29,0,,0.08,-69.9,,167.22,0,3.03,,11327.19,152037.5,28.61579,-82.15724,,,,,,,,,,,,22.47,956.54,
321.86,854.69,6.08,50.57,0,,0.08,-70.12,,167.2,0,2.82,,10483.74,152343.75,28.61581,-82.16038,,,,,,,,,,,,25.5,883.27,
322.86,804.52,6.03,50.09,0,,0.08,-70.36,,167.19,0,2.63,,9703.49,152623.55,28.61583,-82.16325,,,,,,,,,,,,28.61,820.22,
323.86,755.29,5.92,48.96,0,,0.08,-70.6,,167.18,0,2.44,,8968.97,152883.55,28.61585,-82.16591,,,,,,,,,,,,31.81,764.18,
324.86,707.59,5.75,47.27,0,,0.08,-70.86,,167.17,0,2.27,,8279.09,153124.38,28.61586,-82.16838,,,,,,,,,,,,35.08,713.52,
325.86,661.88,5.54,45.16,0,,0.08,-71.13,,167.15,0,2.1,,7632.28,153346.85,28.61588,-82.17066,,,,,,,,,,,,38.39,666.85,
326.88,617.68,5.28,42.68,0,,0.08,-71.42,,167.14,0,1.95,,7014.86,153555.84,28.61589,-82.1728,,,,,,,,,,,,41.79,622.32,
327.88,577.31,4.96,39.46,0,,0.08,-71.72,,167.13,0,1.81,,6448.64,153744.26,28.61591,-82.17473,,,,,,,,,,,,45.11,581.59,
328.9,539.84,4.58,35.73,0,,0.08,-72.05,,167.12,0,1.68,,5907.79,153920.97,28.61592,-82.17654,,,,,,,,,,,,48.48,543.7,
329.92,506.1,4.21,32.16,0,,0.08,-72.39,,167.1,0,1.56,,5400.45,154083.51,28.61594,-82.1782,,,,,,,,,,,,51.83,509.58,
330.92,476.09,3.93,29.39,0,,0.08,-72.74,,167.09,0,1.46,,4932.4,154230.37,28.61595,-82.17971,,,,,,,,,,,,55.09,479.28,
331.92,448.18,3.76,27.63,0,,0.08,-73.1,,167.08,0,1.37,,4491.03,154365.87,28.61596,-82.1811,,,,,,,,,,,,58.32,451.2,
332.92,419.07,4.05,30.45,0,,0.08,-73.48,,167.08,0,1.28,,4075.68,154490.47,28.61597,-82.18237,,,,,,,,,,,,61.49,422.48,
333.92,385.65,4.47,34.59,0,,0.08,-73.87,,167.07,0,1.17,,3689.57,154603.47,28.61598,-82.18353,,,,,,,,,,,,64.57,389.46,
334.92,352.45,4.18,31.67,0,,0.08,-74.3,,167.06,0,1.07,,3335.4,154704.38,28.61599,-82.18456,,,,,,,,,,,,67.51,355.77,
335.94,329.92,2.79,18.14,0,,0.08,-74.75,,167.05,0,0.99,,3001.37,154796.78,28.616,-82.18551,,,,,,,,,,,,70.38,331.73,
336.96,317.79,1.97,10.22,0,,0.08,-75.22,,167.04,0,0.95,,2682.99,154882.1,28.61601,-82.18639,,,,,,,,,,,,73.22,318.81,
337.96,310.48,1.63,6.93,0,,0.08,-75.67,,167.04,0,0.93,,2379.23,154960.88,28.61601,-82.18719,,,,,,,,,,,,76.01,311.16,
338.98,305.04,1.47,5.5,0,,0.08,-76.13,,167.03,0,0.91,,2074.92,155037.23,28.61602,-82.18797,,,,,,,,,,,,78.9,305.57,
340,300.43,1.42,4.94,0,,0.08,-76.58,,167.02,0,0.89,,1774.92,155109.96,28.61603,-82.18872,,,,,,,,,,,,81.84,300.91,
341.02,296.27,1.38,4.54,0,,0.08,-77.03,,167.01,0,0.87,,1478.69,155179.34,28.61604,-82.18943,,,,,,,,,,,,84.83,296.7,
342.04,292.49,1.34,4.2,0,,0.08,-77.46,,167.01,0,0.86,,1185.89,155245.55,28.61604,-82.19011,,,,,,,,,,,,87.89,292.88,
343.06,289.03,1.31,3.9,0,,0.08,-77.89,,167,0,0.85,,896.19,155308.77,28.61605,-82.19076,,,,,,,,,,,,91,289.68,
344.06,285.91,1.29,3.65,0,,0.08,-78.3,,166.99,0,0.84,,614.94,155368,28.61606,-82.19136,,,,,,,,,,,,94.11,291.33,
345.06,283.02,1.27,3.44,0,,0.08,-78.7,,166.98,0,0.83,,336.22,155424.65,28.61606,-82.19194,,,,,,,,,,,,97.28,292.91,
346.06,280.31,1.25,3.25,0,,0.08,-79.09,,166.97,0,0.82,,59.86,155478.85,28.61607,-82.1925,,,,,,,,,,,,100.52,294.37,
