Time,Surface Speed (m/s),GForce (g),Acceleration (m/s^2),Thrust (kN),TWR,Mass (t),Pitch (deg),Heading (deg),Roll (deg),Angle of Attack (deg),Mach number,Altitude from Terrain (m),Altitude from the Sea (m),Downrange Distance (m),Latitude (deg),Longitude (deg),Apoapsis (m),Periapsis (m),Time to Apoapsis (s),Time to Periapsis (s),Inclination (deg),Orbital Velocity (m/s),Gravity (m/s^2),Target Distance (m),Target Speed (m/s),Stage DeltaV (m/s),Vessel DeltaV (m/s),Pressure (kPa),External Temperature (K),
1,82.61,9.16,80.28,26.16,,0.28,78,,-86.99,0,0.21,,141.1,8.68,28.60839,-80.59983,,,,,,,,,,,,99.69,294,
2.02,167.29,9.56,84.24,26.19,,0.27,77.02,,-79.56,0,0.46,,265.96,36.61,28.60838,-80.60012,,,,,,,,,,,,98.25,293.35,
3.04,255.61,9.88,87.44,26.24,,0.25,76.38,,-71.55,0,0.72,,476.42,86.59,28.60838,-80.60063,,,,,,,,,,,,95.84,292.2,
4.06,344.27,9.71,85.77,26.31,,0.24,75.92,,-62.33,0,0.98,,774.59,160.3,28.60838,-80.60139,,,,,,,,,,,,92.51,335.05,
5.06,417.62,8.18,70.76,26.37,,0.23,75.56,,-55.53,0,1.2,,1145.33,254.67,28.60837,-80.60235,,,,,,,,,,,,88.51,409.79,
6.08,495.69,9.06,79.4,26.43,,0.21,75.24,,-53.45,0,1.44,,1596,372.18,28.60836,-80.60356,,,,,,,,,,,,83.84,486.93,
7.08,527.26,3.08,39.75,0,,0.2,74.97,,-50.04,0.01,1.58,,2104.78,507.53,28.60834,-80.60494,,,,,,,,,,,,78.81,532.15,
8.08,489.43,2.63,35.33,0,,0.16,74.68,,-55.15,0,1.47,,2594.22,640.26,28.60833,-80.6063,,,,,,,,,,,,74.2,493.24,
9.08,475.35,0.57,4.65,4.58,,0.16,74.35,,-57.91,0,1.42,,3055.7,768.09,28.60831,-80.60761,,,,,,,,,,,,70.08,475.75,
10.1,472.52,0.72,3.6,4.58,,0.16,74.02,,-59.34,0,1.42,,3520.65,899.76,28.6083,-80.60896,,,,,,,,,,,,66.13,472.75,
11.1,471.07,0.85,2.99,4.58,,0.15,73.68,,-60.08,0,1.42,,3973.69,1030.95,28.60828,-80.61031,,,,,,,,,,,,62.46,471.17,
12.12,470.83,0.97,2.85,4.57,,0.15,73.32,,-60.5,0,1.43,,4434.17,1167.3,28.60826,-80.6117,,,,,,,,,,,,58.9,470.8,
13.12,471.69,1.07,3.13,4.57,,0.15,72.97,,-60.73,0,1.44,,4885.1,1303.84,28.60825,-80.6131,,,,,,,,,,,,55.59,471.55,
14.12,473.55,1.17,3.66,4.57,,0.15,72.61,,-60.87,0,1.45,,5336.49,1443.58,28.60823,-80.61453,,,,,,,,,,,,52.42,473.3,
15.12,476.34,1.26,4.29,4.57,,0.15,72.25,,-60.95,0,1.47,,5789.22,1586.85,28.60821,-80.616,,,,,,,,,,,,49.4,475.99,
16.12,479.98,1.34,4.96,4.56,,0.14,71.88,,-61.01,0,1.49,,6244.09,1734.01,28.6082,-80.61751,,,,,,,,,,,,46.51,479.54,
17.12,484.42,1.42,5.63,4.56,,0.14,71.51,,-61.05,0,1.51,,6701.85,1885.36,28.60818,-80.61906,,,,,,,,,,,,43.74,483.9,
18.14,489.72,1.5,6.29,4.56,,0.14,71.12,,-61.07,0,1.53,,7172.44,2044.39,28.60816,-80.62069,,,,,,,,,,,,41.04,489.11,
19.16,495.74,1.56,6.92,4.55,,0.14,70.74,,-61.09,0,1.56,,7647.43,2208.46,28.60814,-80.62237,,,,,,,,,,,,38.45,495.06,
20.16,502.29,1.63,7.51,4.55,,0.14,70.36,,-61.1,0,1.59,,8117.95,2374.51,28.60811,-80.62407,,,,,,,,,,,,36.02,501.54,
21.16,509.45,1.68,8.07,4.55,,0.13,69.97,,-61.11,0,1.62,,8593.81,2546.01,28.60809,-80.62582,,,,,,,,,,,,33.69,508.63,
22.18,517.35,1.74,8.64,4.55,,0.13,69.58,,-61.12,0,1.66,,9085.19,2726.84,28.60807,-80.62768,,,,,,,,,,,,31.41,516.47,
23.18,525.69,1.8,9.21,4.54,,0.13,69.2,,-61.13,0,1.7,,9573.33,2910.23,28.60805,-80.62956,,,,,,,,,,,,29.28,524.74,
24.18,534.62,1.86,9.79,4.54,,0.13,68.81,,-61.13,0,1.74,,10068.3,3099.98,28.60802,-80.6315,,,,,,,,,,,,27.24,533.61,
25.18,544.16,1.92,10.39,4.54,,0.13,68.43,,-61.14,0,1.78,,10570.58,3296.39,28.608,-80.63351,,,,,,,,,,,,25.29,543.08,
26.18,554.35,1.98,11.02,4.54,,0.12,68.04,,-61.14,0,1.83,,11080.69,3499.8,28.60797,-80.63559,,,,,,,,,,,,23.43,553.2,
27.2,565.44,2.05,11.71,4.53,,0.12,67.65,,-61.15,0,1.88,,11609.63,3714.86,28.60794,-80.6378,,,,,,,,,,,,21.63,564.21,
28.2,577.05,2.13,12.44,4.53,,0.12,67.27,,-61.15,0,1.93,,12137.25,3933.53,28.60791,-80.64004,,,,,,,,,,,,19.95,575.73,
29.22,589.71,2.21,13.26,4.53,,0.12,66.88,,-61.15,0,1.98,,12685.31,4164.96,28.60788,-80.64241,,,,,,,,,,,,18.33,588.3,
30.22,603.02,2.3,14.14,4.53,,0.12,66.5,,-61.16,0,2.04,,13233.03,4400.54,28.60785,-80.64482,,,,,,,,,,,,16.83,601.51,
31.24,617.55,2.39,15.08,4.53,,0.11,66.12,,-61.16,0,2.1,,13803.09,4650.19,28.60782,-80.64738,,,,,,,,,,,,15.38,615.98,
32.26,633.08,2.49,16.05,4.53,,0.11,65.74,,-61.16,0,2.17,,14385.49,4909.83,28.60778,-80.65004,,,,,,,,,,,,14.02,631.54,
33.26,649.32,2.59,17.05,4.53,,0.11,65.38,,-61.17,0,2.24,,14969.27,5174.61,28.60775,-80.65275,,,,,,,,,,,,12.76,647.99,
34.28,666.96,2.7,18.11,4.53,,0.11,65.01,,-61.17,0,2.31,,15578.66,5455.71,28.60771,-80.65563,,,,,,,,,,,,11.56,666.13,
35.28,685.37,2.81,19.22,4.52,,0.11,64.65,,-61.17,0,2.37,,16190.66,5742.7,28.60767,-80.65857,,,,,,,,,,,,10.46,685.39,
36.28,704.95,2.93,20.39,4.52,,0.1,64.3,,-61.17,0,2.44,,16818.01,6041.6,28.60763,-80.66163,,,,,,,,,,,,9.44,706.27,
37.28,725.76,3.05,21.62,4.52,,0.1,63.95,,-61.17,0,2.52,,17461.71,6353.07,28.60759,-80.66482,,,,,,,,,,,,8.5,728.93,
38.3,748.31,3.19,22.93,4.52,,0.1,63.61,,-61.17,0,2.59,,18136.18,6684.43,28.60755,-80.66821,,,,,,,,,,,,7.61,754.07,
39.32,772.23,3.32,24.28,4.52,,0.1,63.27,,-61.17,0,2.66,,18829.86,7030.36,28.6075,-80.67176,,,,,,,,,,,,6.8,781.47,
40.34,797.59,3.46,25.68,4.52,,0.1,62.93,,-61.17,0,2.74,,19543.91,7391.64,28.60745,-80.67546,,,,,,,,,,,,6.06,811.36,
41.34,823.86,3.6,27.09,4.52,,0.09,62.61,,-61.17,0,2.82,,20264.89,7761.56,28.6074,-80.67925,,,,,,,,,,,,5.39,843.4,
42.34,851.58,3.75,28.53,4.52,,0.09,62.3,,-61.17,0,2.9,,21007.76,8147.84,28.60735,-80.6832,,,,,,,,,,,,4.79,878.53,
43.36,881.38,3.9,30.03,4.52,,0.09,61.99,,-61.17,0,2.99,,21789.27,8559.56,28.60729,-80.68742,,,,,,,,,,,,4.23,918.03,
44.38,912.75,4.06,31.57,4.52,,0.09,61.69,,-61.17,0,3.08,,22596.06,8990.08,28.60724,-80.69183,,,,,,,,,,,,3.73,961.81,
45.38,945.06,4.21,33.13,4.52,,0.09,61.4,,-61.17,0,3.18,,23412.85,9431.31,28.60718,-80.69635,,,,,,,,,,,,3.28,1009.41,
46.38,978.98,4.38,34.73,4.52,,0.08,61.11,,-61.16,0,3.28,,24256.45,9892.41,28.60711,-80.70107,,,,,,,,,,,,2.88,1062.29,
47.38,1014.54,4.54,36.38,4.52,,0.08,60.84,,-61.16,0,3.38,,25128.18,10374.31,28.60705,-80.70601,,,,,,,,,,,,2.52,1121.15,
48.38,1051.8,4.72,38.09,4.52,,0.08,60.57,,-61.16,0,3.49,,26029.39,10878,28.60698,-80.71117,,,,,,,,,,,,2.2,1186.76,
49.4,1091.62,4.9,39.9,4.52,,0.08,60.31,,-61.16,0,3.61,,26980.41,11415.25,28.60691,-80.71667,,,,,,,,,,,,1.9,1261.48,
50.42,1133.34,5.09,41.78,4.52,,0.08,60.05,,-61.16,0,3.73,,27965.06,11977.31,28.60683,-80.72243,,,,,,,,,,,,1.64,1344.97,
51.42,1125.34,0.69,15.9,0,,0.08,59.8,,-61.16,0,3.71,,28945.02,12542.28,28.60676,-80.72821,,,,,,,,,,,,1.42,1335.16,
52.44,1110.72,0.58,14.88,0,,0.08,59.54,,-61.15,0,3.65,,29929.13,13115.36,28.60668,-80.73408,,,,,,,,,,,,1.22,1297.85,
53.44,1097.33,0.49,14.06,0,,0.08,59.29,,-61.15,0,3.59,,30879.35,13674.38,28.6066,-80.73981,,,,,,,,,,,,1.06,1264.96,
54.46,1084.49,0.41,13.36,0,,0.08,59.02,,-61.15,0,3.53,,31834.46,14242.12,28.60653,-80.74562,,,,,,,,,,,,0.93,1234.66,
55.46,1072.58,0.35,12.79,0,,0.08,58.75,,-61.15,0,3.48,,32757.63,14796.65,28.60645,-80.7513,,,,,,,,,,,,0.81,1207.64,
56.46,1061.22,0.3,12.32,0,,0.08,58.47,,-61.15,0,3.42,,33668.23,15349.43,28.60638,-80.75697,,,,,,,,,,,,0.71,1182.83,
57.48,1050.13,0.25,11.92,0,,0.08,58.19,,-61.14,0,3.37,,34584.53,15911.69,28.6063,-80.76272,,,,,,,,,,,,0.63,1159.44,
58.5,1039.46,0.22,11.58,0,,0.08,57.9,,-61.14,0,3.33,,35488.58,16472.6,28.60622,-80.76847,,,,,,,,,,,,0.55,1137.72,
59.5,1029.36,0.19,11.29,0,,0.08,57.61,,-61.14,0,3.28,,36363.34,17021.36,28.60615,-80.77409,,,,,,,,,,,,0.49,1117.85,
60.52,1019.38,0.16,11.05,0,,0.08,57.31,,-61.14,0,3.23,,37244.05,17580.1,28.60607,-80.77981,,,,,,,,,,,,0.43,1098.86,
61.52,1009.86,0.13,10.84,0,,0.08,57.01,,-61.14,0,3.19,,38096.42,18127.03,28.606,-80.78541,,,,,,,,,,,,0.38,1081.36,
62.52,1000.58,0.11,10.67,0,,0.08,56.71,,-61.14,0,3.15,,38938.02,18673.24,28.60592,-80.79101,,,,,,,,,,,,0.34,1064.84,
63.54,991.32,0.1,10.51,0,,0.08,56.4,,-61.13,0,3.11,,39785.52,19229.72,28.60585,-80.79671,,,,,,,,,,,,0.31,1048.89,
64.54,982.43,0.08,10.38,0,,0.08,56.08,,-61.13,0,3.07,,40605.83,19774.74,28.60578,-80.80229,,,,,,,,,,,,0.27,1034.06,
65.56,973.54,0.07,10.27,0,,0.08,55.75,,-61.13,0,3.03,,41431.9,20330.18,28.6057,-80.80798,,,,,,,,,,,,0.25,1019.68,
66.56,964.96,0.06,10.18,0,,0.08,55.43,,-61.13,0,2.99,,42231.43,20874.32,28.60563,-80.81355,,,,,,,,,,,,0.22,1006.24,
67.56,956.48,0.05,10.13,0,,0.08,55.1,,-61.13,0,2.95,,43020.81,21418.12,28.60555,-80.81912,,,,,,,,,,,,0.2,993.39,
68.56,948.08,0.05,10.08,0,,0.08,54.76,,-61.13,0,2.92,,43800.08,21961.58,28.60548,-80.82469,,,,,,,,,,,,0.18,981.07,
69.56,939.77,0.04,10.04,0,,0.08,54.42,,-61.12,0,2.88,,44569.29,22504.76,28.6054,-80.83025,,,,,,,,,,,,0.16,969.26,
70.58,931.37,0.04,10.01,0,,0.08,54.07,,-61.12,0,2.85,,45343.56,23058.51,28.60533,-80.83593,,,,,,,,,,,,0.15,957.69,
71.6,923.04,0.04,9.97,0,,0.08,53.71,,-61.12,0,2.82,,46107.44,23612,28.60525,-80.84159,,,,,,,,,,,,0.13,946.56,
72.6,914.95,0.03,9.95,0,,0.08,53.35,,-61.12,0,2.79,,46846.28,24154.4,28.60518,-80.84715,,,,,,,,,,,,0.12,936.05,
73.6,906.93,0.03,9.92,0,,0.08,52.98,,-61.12,0,2.76,,47575.2,24696.58,28.60511,-80.8527,,,,,,,,,,,,0.11,925.89,
74.6,898.97,0.03,9.9,0,,0.08,52.61,,-61.12,0,2.73,,48294.21,25238.56,28.60503,-80.85825,,,,,,,,,,,,0.1,916.06,
75.6,891.07,0.03,9.88,0,,0.08,52.23,,-61.12,0,2.71,,49003.35,25780.35,28.60496,-80.8638,,,,,,,,,,,,0.09,906.53,
76.6,883.23,0.02,9.86,0,,0.08,51.84,,-61.11,0,2.68,,49702.62,26321.96,28.60489,-80.86935,,,,,,,,,,,,0.09,897.27,
77.62,875.3,0.02,9.84,0,,0.08,51.44,,-61.11,0,2.66,,50405.74,26874.23,28.60481,-80.87501,,,,,,,,,,,,0.08,888.07,
78.62,867.59,0.02,9.83,0,,0.08,51.04,,-61.11,0,2.64,,51085.14,27415.52,28.60474,-80.88055,,,,,,,,,,,,0.07,879.27,
79.62,859.93,0.02,9.81,0,,0.08,50.64,,-61.11,0,2.62,,51754.74,27956.65,28.60466,-80.88609,,,,,,,,,,,,0.07,870.66,
80.64,852.18,0.02,9.8,0,,0.08,50.22,,-61.11,0,2.6,,52427.64,28508.47,28.60459,-80.89175,,,,,,,,,,,,0.06,862.05,
81.64,844.64,0.02,9.79,0,,0.08,49.8,,-61.11,0,2.59,,53077.46,29049.34,28.60452,-80.89729,,,,,,,,,,,,0.06,853.76,
82.64,837.16,0.01,9.78,0,,0.08,49.37,,-61.1,0,2.57,,53717.5,29590.08,28.60444,-80.90282,,,,,,,,,,,,0.05,845.61,
83.66,829.6,0.01,9.77,0,,0.08,48.93,,-61.1,0.01,2.55,,54360.3,30141.51,28.60437,-80.90847,,,,,,,,,,,,0.05,837.41,
84.66,822.23,0.01,9.76,0,,0.08,48.49,,-61.1,0.01,2.54,,54980.63,30682.02,28.60429,-80.91401,,,,,,,,,,,,0.04,829.46,
85.66,814.93,0.01,9.75,0,,0.08,48.04,,-61.1,0.01,2.52,,55591.23,31222.41,28.60422,-80.91954,,,,,,,,,,,,0.04,821.62,
86.66,807.69,0.01,9.74,0,,0.08,47.58,,-61.1,0.01,2.51,,56192.09,31762.71,28.60415,-80.92508,,,,,,,,,,,,0.04,813.89,
87.66,800.51,0.01,9.73,0,,0.08,47.11,,-61.1,0.01,2.49,,56783.22,32302.91,28.60407,-80.93061,,,,,,,,,,,,0.03,806.25,
88.66,793.39,0.01,9.73,0,,0.08,46.64,,-61.1,0.01,2.48,,57364.63,32843.01,28.604,-80.93614,,,,,,,,,,,,0.03,798.71,
89.66,786.33,0.01,9.72,0,,0.08,46.16,,-61.1,0.01,2.47,,57936.33,33383.02,28.60393,-80.94167,,,,,,,,,,,,0.03,791.26,
90.66,779.34,0.01,9.71,0,,0.08,45.67,,-61.09,0.01,2.45,,58498.32,33922.95,28.60385,-80.9472,,,,,,,,,,,,0.03,783.9,
91.66,772.41,0.01,9.71,0,,0.08,45.17,,-61.09,0.01,2.44,,59050.61,34462.79,28.60378,-80.95273,,,,,,,,,,,,0.03,776.64,
92.66,765.54,0.01,9.7,0,,0.08,44.66,,-61.09,0.01,2.43,,59593.2,35002.56,28.60371,-80.95826,,,,,,,,,,,,0.02,769.45,
93.68,758.61,0.01,9.7,0,,0.08,44.13,,-61.09,0.01,2.41,,60136.66,35553.04,28.60363,-80.9639,,,,,,,,,,,,0.02,762.22,
94.68,751.88,0.01,9.69,0,,0.08,43.61,,-61.09,0.02,2.4,,60659.69,36092.65,28.60356,-80.96942,,,,,,,,,,,,0.02,755.21,
95.68,745.22,0.01,9.69,0,,0.08,43.07,,-61.09,0.02,2.39,,61173.03,36632.19,28.60349,-80.97495,,,,,,,,,,,,0.02,748.29,
96.68,738.64,0.01,9.68,0,,0.08,42.53,,-61.09,0.02,2.37,,61676.7,37171.66,28.60341,-80.98048,,,,,,,,,,,,0.02,741.45,
97.7,731.99,0.01,9.68,0,,0.08,41.97,,-61.09,0.02,2.36,,62180.48,37721.85,28.60334,-80.98611,,,,,,,,,,,,0.02,734.57,
98.72,725.43,0.01,9.68,0,,0.08,41.39,,-61.08,0.02,2.35,,62674.2,38271.98,28.60326,-80.99175,,,,,,,,,,,,0.02,727.79,
99.74,718.94,0.01,9.67,0,,0.08,40.81,,-61.08,0.02,2.33,,63157.86,38822.04,28.60319,-80.99738,,,,,,,,,,,,0.01,721.1,
100.74,712.66,0.01,9.67,0,,0.08,40.23,,-61.08,0.03,2.32,,63622.29,39361.26,28.60311,-81.0029,,,,,,,,,,,,0.01,714.63,
101.74,706.45,0,9.66,0,,0.08,39.63,,-61.08,0.03,2.3,,64077.05,39900.42,28.60304,-81.00842,,,,,,,,,,,,0.01,708.26,
102.74,700.33,0,9.66,0,,0.08,39.03,,-61.08,0.03,2.29,,64522.17,40439.53,28.60297,-81.01395,,,,,,,,,,,,0.01,701.99,
103.74,694.29,0,9.66,0,,0.08,38.42,,-61.08,0.03,2.28,,64957.64,40978.58,28.60289,-81.01947,,,,,,,,,,,,0.01,695.81,
104.74,688.34,0,9.66,0,,0.08,37.79,,-61.08,0.04,2.26,,65383.45,41517.58,28.60282,-81.02499,,,,,,,,,,,,0.01,689.72,
105.76,682.35,0,9.65,0,,0.08,37.15,,-61.08,0.04,2.25,,65807.86,42067.31,28.60275,-81.03062,,,,,,,,,,,,0.01,683.62,
106.76,676.58,0,9.65,0,,0.08,36.5,,-61.08,0.04,2.24,,66214.2,42606.21,28.60267,-81.03614,,,,,,,,,,,,0.01,677.74,
107.78,670.78,0,9.65,0,,0.08,35.84,,-61.08,0.05,2.23,,66618.74,43155.84,28.6026,-81.04177,,,,,,,,,,,,0.01,671.85,
108.78,665.19,0,9.64,0,,0.08,35.17,,-61.07,0.05,2.21,,67005.61,43694.65,28.60252,-81.04729,,,,,,,,,,,,0.01,666.18,
109.8,659.58,0,9.64,0,,0.08,34.48,,-61.07,0.05,2.2,,67390.3,44244.19,28.60245,-81.05291,,,,,,,,,,,,0.01,660.5,
110.8,654.18,0,9.64,0,,0.08,33.79,,-61.07,0.06,2.19,,67757.72,44782.91,28.60238,-81.05843,,,,,,,,,,,,0.01,655.03,
111.8,648.89,0,9.64,0,,0.08,33.09,,-61.07,0.06,2.18,,68115.5,45321.59,28.6023,-81.06395,,,,,,,,,,,,0.01,649.68,
112.8,643.69,0,9.64,0,,0.08,32.38,,-61.07,0.07,2.16,,68463.66,45860.23,28.60223,-81.06947,,,,,,,,,,,,0.01,644.43,
113.8,638.6,0,9.63,0,,0.08,31.66,,-61.07,0.07,2.15,,68802.2,46398.83,28.60216,-81.07498,,,,,,,,,,,,0.01,639.29,
114.8,633.61,0,9.63,0,,0.08,30.93,,-61.07,0.07,2.14,,69131.11,46937.4,28.60208,-81.0805,,,,,,,,,,,,0.01,634.26,
115.8,628.73,0,9.63,0,,0.08,30.19,,-61.07,0.08,2.13,,69450.4,47475.92,28.60201,-81.08601,,,,,,,,,,,,0.01,629.35,
116.8,623.97,0,9.63,0,,0.08,29.43,,-61.07,0.08,2.12,,69760.07,48014.41,28.60194,-81.09153,,,,,,,,,,,,0.01,624.55,
117.82,619.22,0,9.63,0,,0.08,28.65,,-61.07,0.09,2.11,,70066.03,48563.63,28.60186,-81.09715,,,,,,,,,,,,0.01,619.77,
118.84,614.6,0,9.63,0,,0.08,27.86,,-61.07,0.09,2.09,,70361.97,49112.82,28.60179,-81.10278,,,,,,,,,,,,0.01,615.12,
119.84,610.18,0,9.62,0,,0.08,27.07,,-61.07,0.1,2.08,,70642.41,49651.2,28.60171,-81.10829,,,,,,,,,,,,0,610.69,
120.86,605.81,0,9.62,0,,0.08,26.25,,-61.07,0.1,2.07,,70918.55,50200.31,28.60164,-81.11392,,,,,,,,,,,,0,606.29,
121.86,601.64,0,9.62,0,,0.08,25.44,,-61.07,0.11,2.06,,71179.56,50738.63,28.60157,-81.11943,,,,,,,,,,,,0,602.1,
122.86,597.6,0,9.62,0,,0.08,24.62,,-61.06,0.11,2.05,,71430.97,51276.91,28.60149,-81.12494,,,,,,,,,,,,0,598.04,
123.86,593.69,0,9.62,0,,0.08,23.79,,-61.06,0.12,2.04,,71672.76,51815.17,28.60142,-81.13046,,,,,,,,,,,,0,594.11,
124.86,589.91,0,9.62,0,,0.08,22.94,,-61.06,0.12,2.03,,71904.95,52353.39,28.60135,-81.13597,,,,,,,,,,,,0,590.32,
125.86,586.26,0,9.62,0,,0.08,22.08,,-61.06,0.13,2.02,,72127.53,52891.58,28.60127,-81.14148,,,,,,,,,,,,0,586.65,
126.86,582.75,0,9.62,0,,0.08,21.21,,-61.06,0.13,2.01,,72340.5,53429.74,28.6012,-81.14699,,,,,,,,,,,,0,583.13,
127.86,579.37,0,9.62,0,,0.08,20.34,,-61.06,0.14,2,,72543.86,53967.88,28.60113,-81.1525,,,,,,,,,,,,0,579.74,
128.86,576.14,0,9.61,0,,0.08,19.45,,-61.06,0.14,1.99,,72737.63,54505.98,28.60105,-81.15802,,,,,,,,,,,,0,576.49,
129.88,572.99,0,9.61,0,,0.08,18.53,,-61.06,0.14,1.98,,72925.37,55054.83,28.60098,-81.16364,,,,,,,,,,,,0,573.32,
130.88,570.05,0,9.61,0,,0.08,17.61,,-61.06,0.14,1.97,,73099.73,55592.88,28.6009,-81.16915,,,,,,,,,,,,0,570.36,
131.88,567.25,0,9.61,0,,0.08,16.69,,-61.06,0.15,1.97,,73264.5,56130.91,28.60083,-81.17466,,,,,,,,,,,,0,567.55,
132.9,564.56,0,9.61,0,,0.08,15.74,,-61.06,0.15,1.96,,73422.66,56679.67,28.60076,-81.18028,,,,,,,,,,,,0,564.84,
133.92,562.02,0,9.61,0,,0.08,14.78,,-61.06,0.15,1.95,,73570.84,57228.4,28.60068,-81.1859,,,,,,,,,,,,0,562.28,
134.92,559.68,0,9.61,0,,0.08,13.83,,-61.06,0.15,1.94,,73706.42,57766.36,28.60061,-81.19141,,,,,,,,,,,,0,559.93,
135.92,557.5,0,9.61,0,,0.08,12.87,,-61.06,0.15,1.94,,73832.41,58304.28,28.60053,-81.19692,,,,,,,,,,,,0,557.74,
136.92,555.48,0,9.61,0,,0.08,11.9,,-61.06,0.14,1.93,,73948.79,58842.19,28.60046,-81.20243,,,,,,,,,,,,0,555.7,
137.92,553.62,0,9.61,0,,0.08,10.92,,-61.06,0.14,1.93,,74055.58,59380.07,28.60039,-81.20794,,,,,,,,,,,,0,553.82,
138.92,551.92,0,9.61,0,,0.08,9.93,,-61.06,0.14,1.92,,74152.77,59917.94,28.60031,-81.21345,,,,,,,,,,,,0,552.1,
139.92,550.38,0,9.61,0,,0.08,8.93,,-61.06,0.13,1.92,,74240.37,60455.78,28.60024,-81.21895,,,,,,,,,,,,0,550.54,
140.92,549,0,9.61,0,,0.08,7.93,,-61.06,0.12,1.91,,74318.37,60993.6,28.60017,-81.22446,,,,,,,,,,,,0,549.14,
141.94,547.77,0,9.6,0,,0.08,6.9,,-61.06,0.12,1.91,,74388.04,61542.15,28.60009,-81.23008,,,,,,,,,,,,0,547.89,
142.94,546.72,0,9.6,0,,0.08,5.88,,-61.06,0.11,1.91,,74446.67,62079.94,28.60002,-81.23559,,,,,,,,,,,,0,546.83,
143.94,545.84,0,9.6,0,,0.08,4.86,,-61.06,0.1,1.9,,74495.69,62617.7,28.59994,-81.2411,,,,,,,,,,,,0,545.93,
144.94,545.13,0,9.6,0,,0.08,3.83,,-61.06,0.09,1.9,,74535.13,63155.44,28.59987,-81.2466,,,,,,,,,,,,0,545.2,
145.94,544.59,0,9.6,0,,0.08,2.8,,-61.06,0.07,1.9,,74564.97,63693.16,28.5998,-81.25211,,,,,,,,,,,,0,544.64,
146.94,544.22,0,9.6,0,,0.08,1.77,,-61.06,0.06,1.9,,74585.22,64230.87,28.59972,-81.25762,,,,,,,,,,,,0,544.25,
147.96,544.01,0,9.6,0,,0.08,0.71,,-61.07,0.05,1.9,,74596,64779.32,28.59965,-81.26323,,,,,,,,,,,,0,544.02,
148.98,543.98,0,9.6,0,,0.08,-0.36,,-61.07,0.03,1.9,,74596.79,65327.74,28.59957,-81.26885,,,,,,,,,,,,0,543.97,
149.98,544.11,0,9.6,0,,0.08,-1.4,,-61.07,0.01,1.9,,74587.88,65865.4,28.5995,-81.27436,,,,,,,,,,,,0,544.09,
150.98,544.42,0,9.6,0,,0.08,-2.44,,-61.07,0,1.9,,74569.38,66403.04,28.59943,-81.27986,,,,,,,,,,,,0,544.38,
151.98,544.9,0,9.6,0,,0.08,-3.49,,-61.07,-0.02,1.9,,74541.29,66940.66,28.59935,-81.28537,,,,,,,,,,,,0,544.84,
152.98,545.54,0,9.6,0,,0.08,-4.53,,-61.07,-0.04,1.9,,74503.61,67478.27,28.59928,-81.29088,,,,,,,,,,,,0,545.46,
153.98,546.35,0,9.6,0,,0.08,-5.57,,-61.07,-0.06,1.9,,74456.34,68015.86,28.59921,-81.29638,,,,,,,,,,,,0,546.25,
154.98,547.32,0,9.6,0,,0.08,-6.61,,-61.07,-0.08,1.91,,74399.48,68553.44,28.59913,-81.30189,,,,,,,,,,,,0,547.21,
156,548.49,0,9.6,0,,0.08,-7.66,,-61.07,-0.09,1.91,,74331.6,69101.76,28.59906,-81.3075,,,,,,,,,,,,0,548.36,
157,549.8,0,9.6,0,,0.08,-8.69,,-61.07,-0.11,1.91,,74255.36,69639.31,28.59898,-81.31301,,,,,,,,,,,,0,549.65,
158,551.27,0,9.6,0,,0.08,-9.71,,-61.07,-0.13,1.92,,74169.54,70176.84,28.59891,-81.31852,,,,,,,,,,,,0,551.1,
159,552.91,0,9.6,0,,0.08,-10.72,,-61.07,-0.14,1.92,,74074.12,70714.36,28.59884,-81.32402,,,,,,,,,,,,0,552.72,
160,554.7,0,9.6,0,,0.08,-11.73,,-61.07,-0.16,1.93,,73969.12,71251.87,28.59876,-81.32953,,,,,,,,,,,,0,554.5,
161,556.66,0,9.6,0,,0.08,-12.72,,-61.08,-0.17,1.93,,73854.52,71789.37,28.59869,-81.33503,,,,,,,,,,,,0,556.43,
162,558.77,0,9.6,0,,0.08,-13.71,,-61.08,-0.18,1.94,,73730.33,72326.85,28.59862,-81.34054,,,,,,,,,,,,0,558.53,
163,561.03,0,9.6,0,,0.08,-14.68,,-61.08,-0.19,1.95,,73596.55,72864.32,28.59854,-81.34604,,,,,,,,,,,,0,560.78,
164.02,563.5,0,9.6,0,,0.08,-15.66,,-61.08,-0.2,1.95,,73450.22,73412.53,28.59847,-81.35165,,,,,,,,,,,,0,563.23,
165.02,566.08,0,9.6,0,,0.08,-16.6,,-61.08,-0.2,1.96,,73297.07,73949.97,28.59839,-81.35716,,,,,,,,,,,,0,565.79,
166.02,568.8,0,9.6,0,,0.08,-17.53,,-61.08,-0.2,1.97,,73134.33,74487.4,28.59832,-81.36266,,,,,,,,,,,,0,568.49,
167.02,571.67,0,9.6,0,,0.08,-18.45,,-61.08,-0.2,1.98,,72962,75024.82,28.59824,-81.36817,,,,,,,,,,,,0,571.35,
168.04,574.75,0,9.6,0,,0.08,-19.37,,-61.08,-0.2,1.98,,72776.34,75572.98,28.59817,-81.37378,,,,,,,,,,,,0,574.41,
169.06,577.98,0,9.6,0,,0.08,-20.28,,-61.09,-0.19,1.99,,72580.7,76121.12,28.59809,-81.3794,,,,,,,,,,,,0,577.62,
170.06,581.28,0,9.6,0,,0.08,-21.15,,-61.09,-0.18,2,,72379.21,76658.5,28.59802,-81.3849,,,,,,,,,,,,0,580.91,
171.06,584.73,0,9.6,0,,0.08,-22,,-61.09,-0.17,2.01,,72168.13,77195.87,28.59795,-81.3904,,,,,,,,,,,,0,584.34,
172.06,588.31,0,9.6,0,,0.08,-22.84,,-61.09,-0.15,2.02,,71947.45,77733.23,28.59787,-81.39591,,,,,,,,,,,,0,587.91,
173.06,592.02,0,9.6,0,,0.08,-23.67,,-61.09,-0.14,2.03,,71717.19,78270.58,28.5978,-81.40141,,,,,,,,,,,,0,591.61,
174.06,595.86,0,9.6,0,,0.08,-24.48,,-61.09,-0.12,2.04,,71477.33,78807.92,28.59773,-81.40691,,,,,,,,,,,,0,595.44,
175.06,599.83,0,9.6,0,,0.08,-25.28,,-61.1,-0.1,2.05,,71227.88,79345.24,28.59765,-81.41242,,,,,,,,,,,,0,599.4,
176.06,603.93,0,9.6,0,,0.08,-26.07,,-61.1,-0.09,2.06,,70968.84,79882.56,28.59758,-81.41792,,,,,,,,,,,,0,603.48,
177.08,608.24,0,9.6,0,,0.08,-26.87,,-61.1,-0.07,2.07,,70694.74,80430.61,28.5975,-81.42353,,,,,,,,,,,,0,607.78,
178.1,612.67,0,9.6,0,,0.08,-27.65,,-61.1,-0.05,2.08,,70410.65,80978.65,28.59743,-81.42914,,,,,,,,,,,,0.01,612.21,
179.1,617.13,0,9.6,0,,0.08,-28.42,,-61.1,-0.04,2.1,,70122.45,81515.93,28.59735,-81.43465,,,,,,,,,,,,0.01,616.67,
180.12,621.8,0,9.6,0,,0.08,-29.19,,-61.1,-0.03,2.11,,69818.6,82063.94,28.59728,-81.44026,,,,,,,,,,,,0.01,621.34,
181.14,626.59,0,9.6,0,,0.08,-29.96,,-61.11,-0.03,2.12,,69504.77,82611.95,28.5972,-81.44587,,,,,,,,,,,,0.01,626.13,
182.14,631.4,0,9.6,0,,0.08,-30.71,,-61.11,-0.02,2.13,,69187.41,83149.2,28.59713,-81.45137,,,,,,,,,,,,0.01,630.95,
183.14,636.31,0,9.61,0,,0.08,-31.46,,-61.11,-0.02,2.14,,68860.45,83686.43,28.59705,-81.45688,,,,,,,,,,,,0.01,635.88,
184.14,641.33,0,9.61,0,,0.08,-32.2,,-61.11,-0.03,2.15,,68523.89,84223.66,28.59698,-81.46238,,,,,,,,,,,,0.01,640.92,
185.14,646.45,0,9.61,0,,0.08,-32.94,,-61.11,-0.04,2.17,,68177.75,84760.87,28.59691,-81.46788,,,,,,,,,,,,0.01,646.06,
186.14,651.68,0,9.61,0,,0.08,-33.67,,-61.11,-0.05,2.18,,67822.01,85298.08,28.59683,-81.47338,,,,,,,,,,,,0.01,651.31,
187.16,657.1,0,9.61,0,,0.08,-34.41,,-61.12,-0.06,2.19,,67449.26,85846.01,28.59676,-81.47899,,,,,,,,,,,,0.01,656.78,
188.18,662.63,0,9.61,0,,0.08,-35.13,,-61.12,-0.07,2.2,,67066.54,86393.93,28.59668,-81.48461,,,,,,,,,,,,0.01,662.35,
189.2,668.25,0,9.61,0,,0.08,-35.84,,-61.12,-0.08,2.21,,66673.84,86941.84,28.5966,-81.49022,,,,,,,,,,,,0.01,668.03,
190.2,673.86,0,9.61,0,,0.08,-36.52,,-61.12,-0.08,2.23,,66279.14,87479,28.59653,-81.49572,,,,,,,,,,,,0.01,673.7,
191.2,679.55,0,9.61,0,,0.08,-37.17,,-61.12,-0.08,2.24,,65874.84,88016.13,28.59646,-81.50122,,,,,,,,,,,,0.01,679.46,
192.2,685.33,0,9.61,0,,0.08,-37.81,,-61.13,-0.08,2.25,,65460.96,88553.26,28.59638,-81.50672,,,,,,,,,,,,0.01,685.32,
193.2,691.19,0,9.61,0,,0.08,-38.42,,-61.13,-0.07,2.26,,65037.47,89090.36,28.59631,-81.51222,,,,,,,,,,,,0.01,691.28,
194.2,697.13,0,9.61,0,,0.08,-39.01,,-61.13,-0.05,2.28,,64604.4,89627.45,28.59623,-81.51772,,,,,,,,,,,,0.01,697.33,
195.22,703.27,0,9.61,0,,0.08,-39.59,,-61.13,-0.03,2.29,,64152.77,90175.27,28.59616,-81.52333,,,,,,,,,,,,0.01,703.59,
196.22,709.37,0,9.6,0,,0.08,-40.15,,-61.13,-0.01,2.3,,63700.31,90712.32,28.59608,-81.52883,,,,,,,,,,,,0.01,709.83,
197.24,715.67,0.01,9.6,0,,0.08,-40.72,,-61.14,0,2.32,,63228.93,91260.1,28.59601,-81.53444,,,,,,,,,,,,0.01,716.28,
198.24,721.92,0.01,9.6,0,,0.08,-41.27,,-61.14,0.02,2.33,,62757.09,91797.11,28.59593,-81.53994,,,,,,,,,,,,0.02,722.69,
199.24,728.24,0.01,9.6,0,,0.08,-41.84,,-61.14,0.02,2.34,,62275.67,92334.1,28.59586,-81.54544,,,,,,,,,,,,0.02,729.19,
200.24,734.63,0.01,9.6,0,,0.08,-42.41,,-61.14,0.01,2.36,,61784.66,92871.07,28.59578,-81.55094,,,,,,,,,,,,0.02,735.76,
201.24,741.08,0.01,9.6,0,,0.08,-42.98,,-61.15,0,2.37,,61284.05,93408.02,28.59571,-81.55644,,,,,,,,,,,,0.02,742.42,
202.24,747.6,0.01,9.6,0,,0.08,-43.56,,-61.15,-0.02,2.38,,60773.87,93944.94,28.59564,-81.56194,,,,,,,,,,,,0.02,749.16,
203.24,754.18,0.01,9.6,0,,0.08,-44.13,,-61.15,-0.03,2.4,,60254.09,94481.83,28.59556,-81.56744,,,,,,,,,,,,0.02,755.98,
204.24,760.82,0.01,9.6,0,,0.08,-44.67,,-61.15,-0.04,2.41,,59724.73,95018.69,28.59549,-81.57294,,,,,,,,,,,,0.02,762.88,
205.24,767.52,0.01,9.6,0,,0.08,-45.19,,-61.15,-0.04,2.42,,59185.78,95555.52,28.59541,-81.57843,,,,,,,,,,,,0.03,769.85,
206.24,774.28,0.01,9.59,0,,0.08,-45.67,,-61.16,-0.03,2.43,,58637.26,96092.31,28.59534,-81.58393,,,,,,,,,,,,0.03,776.89,
207.24,781.1,0.01,9.59,0,,0.08,-46.12,,-61.16,-0.01,2.45,,58079.15,96629.06,28.59526,-81.58943,,,,,,,,,,,,0.03,784.02,
208.26,788.1,0.01,9.59,0,,0.08,-46.57,,-61.16,0.01,2.46,,57500.01,97176.51,28.59519,-81.59504,,,,,,,,,,,,0.03,791.36,
209.28,795.16,0.01,9.58,0,,0.08,-47.03,,-61.16,0.02,2.48,,56910.92,97723.92,28.59511,-81.60064,,,,,,,,,,,,0.03,798.79,
210.28,802.13,0.01,9.58,0,,0.08,-47.51,,-61.17,0.02,2.49,,56323.71,98260.54,28.59504,-81.60614,,,,,,,,,,,,0.04,806.14,
211.3,809.28,0.01,9.58,0,,0.08,-48.02,,-61.17,0,2.5,,55714.9,98807.86,28.59496,-81.61174,,,,,,,,,,,,0.04,813.73,
212.3,816.35,0.01,9.57,0,,0.08,-48.52,,-61.17,-0.02,2.52,,55108.37,99344.38,28.59489,-81.61724,,,,,,,,,,,,0.04,821.26,
213.3,823.45,0.01,9.57,0,,0.08,-48.99,,-61.17,-0.03,2.53,,54492.28,99880.85,28.59481,-81.62273,,,,,,,,,,,,0.05,828.86,
214.3,830.6,0.01,9.56,0,,0.08,-49.42,,-61.17,-0.03,2.55,,53866.63,100417.26,28.59474,-81.62823,,,,,,,,,,,,0.05,836.55,
215.3,837.79,0.01,9.56,0,,0.08,-49.81,,-61.18,0,2.56,,53231.44,100953.61,28.59466,-81.63372,,,,,,,,,,,,0.05,844.31,
216.3,845.02,0.02,9.55,0,,0.08,-50.18,,-61.18,0.02,2.58,,52586.7,101489.88,28.59459,-81.63921,,,,,,,,,,,,0.06,852.16,
217.3,852.28,0.02,9.54,0,,0.08,-50.59,,-61.18,0.02,2.59,,51932.42,102026.08,28.59451,-81.6447,,,,,,,,,,,,0.06,860.13,
218.3,859.58,0.02,9.53,0,,0.08,-51.04,,-61.18,0,2.61,,51268.63,102562.2,28.59444,-81.65019,,,,,,,,,,,,0.07,868.23,
219.3,866.9,0.02,9.53,0,,0.08,-51.49,,-61.19,-0.02,2.63,,50595.31,103098.23,28.59436,-81.65568,,,,,,,,,,,,0.08,876.46,
220.3,874.26,0.02,9.52,0,,0.08,-51.89,,-61.19,-0.02,2.65,,49912.49,103634.16,28.59429,-81.66117,,,,,,,,,,,,0.08,884.84,
221.32,881.78,0.02,9.5,0,,0.08,-52.24,,-61.19,0,2.67,,49206.22,104180.7,28.59421,-81.66677,,,,,,,,,,,,0.09,893.58,
222.34,889.33,0.03,9.48,0,,0.08,-52.59,,-61.19,0.02,2.7,,48490.09,104727.13,28.59414,-81.67236,,,,,,,,,,,,0.1,902.51,
223.36,896.9,0.03,9.47,0,,0.08,-53.01,,-61.2,0.01,2.72,,47764.11,105273.42,28.59406,-81.67796,,,,,,,,,,,,0.11,911.66,
224.38,904.49,0.03,9.45,0,,0.08,-53.43,,-61.2,-0.02,2.75,,47028.3,105819.57,28.59399,-81.68355,,,,,,,,,,,,0.12,921.05,
225.38,911.94,0.03,9.43,0,,0.08,-53.78,,-61.2,-0.01,2.78,,46297.38,106354.86,28.59391,-81.68903,,,,,,,,,,,,0.13,930.5,
226.4,919.55,0.04,9.4,0,,0.08,-54.09,,-61.2,0.02,2.8,,45542.16,106900.68,28.59383,-81.69462,,,,,,,,,,,,0.14,940.4,
227.4,927.01,0.04,9.37,0,,0.08,-54.46,,-61.2,0.01,2.83,,44792.27,107435.62,28.59376,-81.7001,,,,,,,,,,,,0.16,950.4,
228.42,934.62,0.04,9.35,0,,0.08,-54.87,,-61.21,-0.02,2.87,,44017.74,107981.05,28.59368,-81.70569,,,,,,,,,,,,0.17,960.9,
229.42,942.07,0.05,9.32,0,,0.08,-55.17,,-61.21,0,2.9,,43248.97,108515.56,28.59361,-81.71116,,,,,,,,,,,,0.19,971.51,
230.44,949.66,0.05,9.27,0,,0.08,-55.48,,-61.21,0.01,2.93,,42455.26,109060.51,28.59353,-81.71674,,,,,,,,,,,,0.21,982.66,
231.44,957.08,0.06,9.23,0,,0.08,-55.87,,-61.21,-0.01,2.97,,41667.78,109594.5,28.59346,-81.72221,,,,,,,,,,,,0.24,993.91,
232.44,964.44,0.07,9.15,0,,0.08,-56.17,,-61.22,0,3,,40871.11,110128.18,28.59338,-81.72768,,,,,,,,,,,,0.26,1005.44,
233.46,971.86,0.08,9.03,0,,0.08,-56.48,,-61.22,0.01,3.04,,40049.12,110672.17,28.59331,-81.73325,,,,,,,,,,,,0.29,1017.44,
234.48,979.17,0.1,8.94,0,,0.08,-56.84,,-61.22,-0.01,3.07,,39217.79,111215.7,28.59323,-81.73882,,,,,,,,,,,,0.33,1029.65,
235.48,986.22,0.11,8.79,0,,0.08,-57.1,,-61.22,0.01,3.11,,38393.79,111748.06,28.59316,-81.74427,,,,,,,,,,,,0.37,1041.82,
236.48,993.11,0.13,8.65,0,,0.08,-57.45,,-61.23,-0.01,3.14,,37561.06,112279.83,28.59308,-81.74971,,,,,,,,,,,,0.41,1054.14,
237.48,999.83,0.15,8.47,0,,0.08,-57.71,,-61.23,0.01,3.17,,36719.77,112810.91,28.59301,-81.75515,,,,,,,,,,,,0.46,1066.58,
238.48,1006.35,0.18,8.29,0,,0.08,-58.05,,-61.23,-0.01,3.21,,35870.1,113341.19,28.59293,-81.76058,,,,,,,,,,,,0.52,1079.09,
239.48,1012.62,0.21,8.06,0,,0.08,-58.3,,-61.23,0.01,3.24,,35012.26,113870.54,28.59286,-81.766,,,,,,,,,,,,0.59,1091.6,
240.5,1018.73,0.24,7.82,0,,0.08,-58.63,,-61.23,-0.01,3.27,,34129.11,114409.38,28.59278,-81.77152,,,,,,,,,,,,0.66,1104.29,
241.5,1024.39,0.28,7.51,0,,0.08,-58.9,,-61.24,0,3.31,,33255.58,114936.4,28.59271,-81.77692,,,,,,,,,,,,0.75,1116.56,
242.52,1029.78,0.32,7.2,0,,0.08,-59.17,,-61.24,0.01,3.34,,32357.06,115472.49,28.59263,-81.78241,,,,,,,,,,,,0.85,1128.78,
243.52,1034.6,0.37,6.87,0,,0.08,-59.47,,-61.24,0,3.37,,31469.18,115996.42,28.59256,-81.78778,,,,,,,,,,,,0.97,1140.4,
244.52,1038.91,0.43,6.47,0,,0.08,-59.75,,-61.24,-0.01,3.39,,30574.83,116518.47,28.59249,-81.79312,,,,,,,,,,,,1.11,1151.49,
245.54,1042.7,0.5,6.04,0,,0.08,-60.02,,-61.24,0,3.42,,29656.47,117048.73,28.59241,-81.79855,,,,,,,,,,,,1.27,1162.05,
246.54,1045.7,0.58,5.61,0,,0.08,-60.28,,-61.24,0,3.45,,28750.7,117566.08,28.59234,-81.80385,,,,,,,,,,,,1.45,1171.35,
247.54,1047.92,0.66,5.22,0,,0.08,-60.55,,-61.25,0,3.47,,27840.25,118080.59,28.59227,-81.80912,,,,,,,,,,,,1.66,1179.32,
248.54,1049.21,0.76,4.91,0,,0.08,-60.81,,-61.25,0,3.49,,26925.89,118591.85,28.59219,-81.81436,,,,,,,,,,,,1.9,1185.72,
249.56,1049.46,0.88,4.79,0,,0.08,-61.08,,-61.25,0,3.5,,25990.15,119109.5,28.59212,-81.81966,,,,,,,,,,,,2.2,1190.35,
250.56,1048.49,1.01,4.95,0,,0.08,-61.34,,-61.25,0,3.51,,25070.76,119612.71,28.59205,-81.82481,,,,,,,,,,,,2.53,1192.71,
251.56,1046.16,1.15,5.46,0,,0.08,-61.59,,-61.25,0,3.52,,24150.54,120111.07,28.59198,-81.82991,,,,,,,,,,,,2.91,1192.61,
252.56,1042.28,1.32,6.4,0,,0.08,-61.85,,-61.25,0,3.52,,23230.83,120603.93,28.59191,-81.83496,,,,,,,,,,,,3.36,1189.68,
253.56,1036.66,1.51,7.72,0,,0.08,-62.1,,-61.25,0,3.52,,22313.11,121090.54,28.59184,-81.83995,,,,,,,,,,,,3.88,1183.57,
254.58,1028.91,1.72,9.44,0,,0.08,-62.37,,-61.26,0,3.51,,21380.83,121579.59,28.59177,-81.84495,,,,,,,,,,,,4.49,1173.72,
255.58,1019.12,1.95,11.44,0,,0.08,-62.62,,-61.26,0,3.5,,20472.47,122050.97,28.5917,-81.84978,,,,,,,,,,,,5.19,1160.2,
256.6,1006.65,2.21,13.77,0,,0.08,-62.88,,-61.26,0,3.47,,19553.86,122522.5,28.59164,-81.85461,,,,,,,,,,,,6.01,1141.72,
257.6,991.8,2.48,16.3,0,,0.08,-63.14,,-61.26,0,3.44,,18663.36,122974.58,28.59157,-81.85924,,,,,,,,,,,,6.94,1118.13,
258.62,973.81,2.77,19.02,0,,0.08,-63.41,,-61.26,0,3.39,,17767.92,123424.12,28.59151,-81.86384,,,,,,,,,,,,8.04,1088.02,
259.64,952.93,3.07,21.8,0,,0.08,-63.67,,-61.26,0,3.32,,16888.16,123860.73,28.59145,-81.86831,,,,,,,,,,,,9.28,1051.95,
260.66,929.19,3.35,24.48,0,,0.08,-63.95,,-61.26,0,3.24,,16026.8,124283.22,28.59138,-81.87264,,,,,,,,,,,,10.69,1010.84,
261.66,903.37,3.6,26.89,0,,0.08,-64.22,,-61.26,0,3.14,,15202.7,124682.64,28.59133,-81.87673,,,,,,,,,,,,12.22,967.16,
262.66,875.33,3.82,28.98,0,,0.08,-64.5,,-61.26,0,3.02,,14401.01,125066.51,28.59127,-81.88066,,,,,,,,,,,,13.91,922.36,
263.68,844.79,4.01,30.77,0,,0.08,-64.79,,-61.26,0,2.89,,13608.39,125441.27,28.59122,-81.8845,,,,,,,,,,,,15.79,877.48,
264.7,812.65,4.16,32.19,0,,0.08,-65.09,,-61.26,0,2.76,,12842.85,125798.48,28.59116,-81.88816,,,,,,,,,,,,17.81,834.22,
265.72,779.33,4.26,33.22,0,,0.08,-65.39,,-61.26,0,2.62,,12105.79,126137.71,28.59111,-81.89163,,,,,,,,,,,,19.96,792.92,
266.74,745.25,4.33,33.81,0,,0.08,-65.71,,-61.26,0,2.49,,11398.22,126458.74,28.59107,-81.89492,,,,,,,,,,,,22.24,753.67,
267.76,710.86,4.35,33.99,0,,0.08,-66.04,,-61.26,0,2.35,,10720.76,126761.56,28.59102,-81.89802,,,,,,,,,,,,24.63,716.33,
268.78,676.55,4.33,33.78,0,,0.08,-66.38,,-61.26,0,2.22,,10073.62,127046.34,28.59098,-81.90094,,,,,,,,,,,,27.11,680.66,
269.78,643.36,4.28,33.24,0,,0.08,-66.73,,-61.25,0,2.09,,9468.5,127308.35,28.59094,-81.90362,,,,,,,,,,,,29.62,647.02,
270.8,610.28,4.2,32.39,0,,0.08,-67.09,,-61.25,0,1.97,,8880.72,127558.55,28.5909,-81.90618,,,,,,,,,,,,32.23,613.81,
271.82,578.45,4.05,30.96,0,,0.08,-67.47,,-61.25,0,1.85,,8321.91,127792.15,28.59087,-81.90858,,,,,,,,,,,,34.88,581.81,
272.82,549.02,3.86,29.09,0,,0.08,-67.86,,-61.24,0,1.74,,7800.87,128005.9,28.59084,-81.91077,,,,,,,,,,,,37.52,552.17,
273.84,521.07,3.66,27.03,0,,0.08,-68.27,,-61.24,0,1.64,,7295.06,128209.34,28.5908,-81.91285,,,,,,,,,,,,40.23,523.98,
274.84,495.66,3.46,25.1,0,,0.08,-68.68,,-61.23,0,1.55,,6822.53,128395.48,28.59078,-81.91475,,,,,,,,,,,,42.9,498.37,
275.86,471.5,3.3,23.51,0,,0.08,-69.11,,-61.22,0,1.47,,6362.69,128572.72,28.59075,-81.91657,,,,,,,,,,,,45.64,474.04,
276.88,448.63,3.19,22.37,0,,0.08,-69.56,,-61.22,0,1.39,,5923.89,128737.98,28.59072,-81.91826,,,,,,,,,,,,48.39,451.05,
277.88,426.07,3.3,23.42,0,,0.08,-70.01,,-61.21,0,1.32,,5513.52,128888.88,28.5907,-81.91981,,,,,,,,,,,,51.08,428.66,
278.9,399.9,3.67,27.03,0,,0.08,-70.49,,-61.21,0,1.23,,5116.97,129031.08,28.59067,-81.92126,,,,,,,,,,,,53.8,402.9,
279.9,371.4,3.88,29,0,,0.08,-70.98,,-61.2,0,1.14,,4753.08,129158.12,28.59065,-81.92256,,,,,,,,,,,,56.4,374.56,
280.92,344.45,3.43,24.61,0,,0.08,-71.5,,-61.19,0,1.05,,4408.14,129275.15,28.59064,-81.92376,,,,,,,,,,,,58.95,346.99,
281.92,327.12,2.43,14.84,0,,0.08,-72.04,,-61.18,0,0.99,,4090.11,129379.78,28.59062,-81.92483,,,,,,,,,,,,61.39,328.6,
282.92,317.03,1.83,9.1,0,,0.08,-72.58,,-61.17,0,0.96,,3783.76,129477.39,28.5906,-81.92583,,,,,,,,,,,,63.82,317.92,
283.92,310.63,1.53,6.36,0,,0.08,-73.11,,-61.16,0,0.93,,3484.13,129569.77,28.59059,-81.92678,,,,,,,,,,,,66.27,311.23,
284.92,306.07,1.38,5.05,0,,0.08,-73.64,,-61.15,0,0.92,,3188.79,129657.83,28.59057,-81.92768,,,,,,,,,,,,68.77,306.52,
285.92,302.41,1.31,4.42,0,,0.08,-74.16,,-61.14,0,0.9,,2896.54,129742.07,28.59056,-81.92854,,,,,,,,,,,,71.31,302.79,
286.92,299.14,1.29,4.15,0,,0.08,-74.67,,-61.13,0,0.89,,2606.85,129822.75,28.59054,-81.92937,,,,,,,,,,,,73.91,299.49,
287.92,296.07,1.27,3.95,0,,0.08,-75.17,,-61.12,0,0.88,,2319.52,129900.06,28.59053,-81.93016,,,,,,,,,,,,76.57,296.4,
288.94,293.12,1.26,3.77,0,,0.08,-75.67,,-61.11,0,0.87,,2028.73,129975.59,28.59052,-81.93094,,,,,,,,,,,,79.35,293.43,
289.96,290.33,1.24,3.6,0,,0.08,-76.16,,-61.09,0,0.86,,1740.14,130047.91,28.5905,-81.93168,,,,,,,,,,,,82.19,290.63,
290.96,287.75,1.23,3.44,0,,0.08,-76.63,,-61.08,0,0.85,,1459.23,130115.82,28.59049,-81.93237,,,,,,,,,,,,85.04,288.03,
291.96,285.31,1.22,3.29,0,,0.08,-77.08,,-61.06,0,0.84,,1180.24,130180.91,28.59048,-81.93304,,,,,,,,,,,,87.95,288,
292.96,282.98,1.21,3.15,0,,0.08,-77.53,,-61.04,0,0.83,,903.06,130243.28,28.59047,-81.93368,,,,,,,,,,,,90.92,289.65,
293.96,280.77,1.2,3.02,0,,0.08,-77.96,,-61.02,0,0.82,,627.62,130303.06,28.59046,-81.93429,,,,,,,,,,,,93.97,291.27,
294.96,278.65,1.19,2.91,0,,0.08,-78.38,,-61,0,0.81,,353.87,130360.34,28.59044,-81.93488,,,,,,,,,,,,97.08,292.83,
295.98,276.57,1.19,2.81,0,,0.08,-78.8,,-60.98,0,0.8,,76.32,130416.29,28.59043,-81.93545,,,,,,,,,,,,100.33,294.3,
