Time,Surface Speed (m/s),GForce (g),Acceleration (m/s^2),Thrust (kN),TWR,Mass (t),Pitch (deg),Heading (deg),Roll (deg),Angle of Attack (deg),Mach number,Altitude from Terrain (m),Altitude from the Sea (m),Downrange Distance (m),Latitude (deg),Longitude (deg),Apoapsis (m),Periapsis (m),Time to Apoapsis (s),Time to Periapsis (s),Inclination (deg),Orbital Velocity (m/s),Gravity (m/s^2),Target Distance (m),Target Speed (m/s),Stage DeltaV (m/s),Vessel DeltaV (m/s),Pressure (kPa),External Temperature (K),
1,81.92,9.09,79.59,26.16,,0.28,77.98,,-87.04,0,0.21,,140.75,8.62,28.60839,-80.59983,,,,,,,,,,,,99.7,294.04,
2,164.18,9.48,83.43,26.19,,0.27,77.01,,-79.89,0,0.45,,261.32,35.6,28.60838,-80.60011,,,,,,,,,,,,98.3,293.41,
3.02,251.68,9.8,86.66,26.24,,0.26,76.36,,-71.96,0,0.71,,468.26,84.8,28.60838,-80.60061,,,,,,,,,,,,95.94,292.28,
4.02,338.22,9.72,85.84,26.3,,0.24,75.9,,-63.14,0,0.96,,755.59,155.92,28.60838,-80.60134,,,,,,,,,,,,92.72,328.91,
5.04,413.27,8.11,70.13,26.37,,0.23,75.52,,-55.98,0,1.19,,1128.81,251.12,28.60837,-80.60232,,,,,,,,,,,,88.68,405.54,
6.04,488.66,8.96,78.42,26.42,,0.22,75.2,,-54.04,0,1.42,,1565.04,365.17,28.60836,-80.60349,,,,,,,,,,,,84.15,479.96,
7.06,524.3,2.38,32.89,0,,0.21,74.92,,-50.79,0,1.57,,2078.69,502.28,28.60835,-80.60489,,,,,,,,,,,,79.06,529.11,
8.06,486.72,2.61,35.15,0,,0.16,74.62,,-56.22,0,1.46,,2565.3,634.74,28.60834,-80.60625,,,,,,,,,,,,74.47,490.51,
9.08,472.17,0.59,4.5,4.58,,0.16,74.29,,-59.42,0,1.41,,3032.85,764.79,28.60833,-80.60758,,,,,,,,,,,,70.28,472.55,
10.1,469.51,0.74,3.51,4.58,,0.16,73.95,,-61.03,0,1.41,,3494.62,896.16,28.60831,-80.60893,,,,,,,,,,,,66.34,469.73,
11.1,468.22,0.86,2.95,4.58,,0.15,73.6,,-61.87,0,1.41,,3944.68,1027.1,28.6083,-80.61027,,,,,,,,,,,,62.69,468.3,
12.12,468.11,0.98,2.87,4.57,,0.15,73.25,,-62.33,0,1.42,,4402.25,1163.26,28.60829,-80.61166,,,,,,,,,,,,59.14,468.07,
13.12,469.08,1.08,3.19,4.57,,0.15,72.89,,-62.59,0,1.43,,4850.45,1299.66,28.60828,-80.61306,,,,,,,,,,,,55.84,468.93,
14.14,471.1,1.18,3.74,4.57,,0.15,72.52,,-62.74,0,1.44,,5308.18,1442.13,28.60826,-80.61452,,,,,,,,,,,,52.62,470.84,
15.16,474.06,1.27,4.39,4.57,,0.15,72.14,,-62.84,0,1.46,,5767.41,1588.34,28.60825,-80.61602,,,,,,,,,,,,49.54,473.7,
16.18,477.91,1.36,5.08,4.56,,0.14,71.76,,-62.89,0,1.48,,6228.98,1738.65,28.60823,-80.61756,,,,,,,,,,,,46.6,477.45,
17.18,482.47,1.43,5.74,4.56,,0.14,71.39,,-62.93,0,1.5,,6684.52,1890.31,28.60822,-80.61911,,,,,,,,,,,,43.84,481.94,
18.18,487.78,1.51,6.39,4.56,,0.14,71.01,,-62.96,0,1.53,,7143.73,2046.56,28.6082,-80.62071,,,,,,,,,,,,41.2,487.16,
19.2,493.9,1.57,7.02,4.55,,0.14,70.62,,-62.97,0,1.55,,7616.55,2210.99,28.60819,-80.62239,,,,,,,,,,,,38.61,493.2,
20.2,500.54,1.63,7.6,4.55,,0.14,70.23,,-62.99,0,1.58,,8085.02,2377.45,28.60817,-80.6241,,,,,,,,,,,,36.18,499.78,
21.2,507.77,1.69,8.15,4.55,,0.13,69.84,,-63,0,1.62,,8558.89,2549.41,28.60815,-80.62586,,,,,,,,,,,,33.85,506.95,
22.22,515.74,1.75,8.71,4.55,,0.13,69.45,,-63.01,0,1.65,,9048.29,2730.79,28.60813,-80.62772,,,,,,,,,,,,31.58,514.86,
23.22,524.14,1.8,9.27,4.54,,0.13,69.06,,-63.02,0,1.69,,9534.53,2914.77,28.60812,-80.6296,,,,,,,,,,,,29.44,523.19,
24.22,533.12,1.86,9.84,4.54,,0.13,68.67,,-63.03,0,1.73,,10027.61,3105.16,28.6081,-80.63155,,,,,,,,,,,,27.4,532.11,
25.22,542.71,1.92,10.43,4.54,,0.13,68.28,,-63.03,0,1.78,,10528.03,3302.27,28.60807,-80.63357,,,,,,,,,,,,25.45,541.62,
26.22,552.92,1.98,11.05,4.54,,0.12,67.89,,-63.04,0,1.82,,11036.29,3506.45,28.60805,-80.63566,,,,,,,,,,,,23.59,551.76,
27.22,563.8,2.05,11.71,4.53,,0.12,67.51,,-63.04,0,1.87,,11552.9,3718.03,28.60803,-80.63783,,,,,,,,,,,,21.82,562.57,
28.22,575.4,2.12,12.43,4.53,,0.12,67.12,,-63.04,0,1.92,,12078.45,3937.39,28.60801,-80.64008,,,,,,,,,,,,20.14,574.09,
29.24,588.04,2.2,13.24,4.53,,0.12,66.73,,-63.05,0,1.98,,12624.36,4169.59,28.60798,-80.64246,,,,,,,,,,,,18.51,586.64,
30.26,601.59,2.29,14.13,4.53,,0.12,66.34,,-63.05,0,2.04,,13180.91,4410.77,28.60796,-80.64493,,,,,,,,,,,,16.97,600.08,
31.26,615.8,2.39,15.04,4.53,,0.11,65.96,,-63.05,0,2.1,,13737.67,4656.45,28.60793,-80.64744,,,,,,,,,,,,15.54,614.23,
32.3,631.6,2.49,16.03,4.53,,0.11,65.57,,-63.05,0,2.16,,14329.19,4922.18,28.6079,-80.65017,,,,,,,,,,,,14.14,630.04,
33.32,648.14,2.59,17.04,4.53,,0.11,65.2,,-63.05,0,2.23,,14922.58,5193.5,28.60787,-80.65294,,,,,,,,,,,,12.85,646.79,
34.34,665.76,2.7,18.1,4.53,,0.11,64.82,,-63.06,0,2.3,,15529.98,5476.02,28.60784,-80.65584,,,,,,,,,,,,11.65,664.89,
35.36,684.53,2.81,19.23,4.52,,0.11,64.46,,-63.06,0,2.37,,16152.31,5770.34,28.60781,-80.65885,,,,,,,,,,,,10.53,684.5,
36.38,704.52,2.93,20.42,4.52,,0.1,64.09,,-63.06,0,2.44,,16790.56,6077.15,28.60778,-80.662,,,,,,,,,,,,9.48,705.8,
37.4,725.77,3.06,21.68,4.52,,0.1,63.74,,-63.06,0,2.52,,17445.77,6397.13,28.60774,-80.66527,,,,,,,,,,,,8.52,728.95,
38.4,747.91,3.19,22.96,4.52,,0.1,63.4,,-63.06,0,2.59,,18105.65,6724.34,28.60771,-80.66862,,,,,,,,,,,,7.65,753.63,
39.4,771.38,3.32,24.28,4.52,,0.1,63.06,,-63.06,0,2.66,,18783.93,7065.65,28.60767,-80.67212,,,,,,,,,,,,6.85,780.48,
40.42,796.72,3.46,25.68,4.52,,0.1,62.72,,-63.06,0,2.74,,19495.89,7429.11,28.60763,-80.67584,,,,,,,,,,,,6.1,810.35,
41.44,823.54,3.61,27.12,4.52,,0.09,62.4,,-63.06,0,2.82,,20229.34,7808.86,28.60759,-80.67973,,,,,,,,,,,,5.42,843.03,
42.44,851.29,3.75,28.56,4.52,,0.09,62.08,,-63.06,0,2.9,,20970.45,8197.81,28.60755,-80.68372,,,,,,,,,,,,4.82,878.19,
43.44,880.51,3.9,30.04,4.52,,0.09,61.77,,-63.06,0,2.99,,21734.58,8604.1,28.6075,-80.68788,,,,,,,,,,,,4.27,916.91,
44.46,911.89,4.06,31.58,4.52,,0.09,61.47,,-63.06,0,3.08,,22538.96,9037.25,28.60746,-80.69232,,,,,,,,,,,,3.76,960.64,
45.46,944.21,4.21,33.14,4.52,,0.09,61.18,,-63.06,0,3.18,,23353.28,9481.18,28.60741,-80.69686,,,,,,,,,,,,3.31,1008.2,
46.48,978.83,4.38,34.78,4.52,,0.08,60.89,,-63.05,0,3.28,,24211.45,9954.61,28.60736,-80.70171,,,,,,,,,,,,2.9,1062.16,
47.5,1015.17,4.55,36.47,4.52,,0.08,60.6,,-63.05,0,3.39,,25098.82,10449.87,28.6073,-80.70679,,,,,,,,,,,,2.53,1122.37,
48.52,1053.29,4.73,38.22,4.52,,0.08,60.33,,-63.05,0,3.5,,26016.82,10967.98,28.60725,-80.71209,,,,,,,,,,,,2.2,1189.64,
49.52,1092.44,4.91,40,4.52,,0.08,60.07,,-63.05,0,3.62,,26947.97,11499.18,28.60719,-80.71753,,,,,,,,,,,,1.91,1263.29,
50.54,1134.27,5.1,41.89,4.52,,0.08,59.81,,-63.04,0,3.74,,27931.02,12065.8,28.60713,-80.72334,,,,,,,,,,,,1.65,1347.17,
51.54,1119.36,0.68,15.87,0,,0.08,59.56,,-63.04,0,3.69,,28903.73,12632.09,28.60706,-80.72914,,,,,,,,,,,,1.42,1322.37,
52.56,1104.78,0.57,14.86,0,,0.08,59.3,,-63.04,0,3.63,,29880.12,13206.3,28.607,-80.73502,,,,,,,,,,,,1.23,1285.72,
53.56,1091.43,0.49,14.04,0,,0.08,59.03,,-63.04,0,3.57,,30822.81,13766.41,28.60694,-80.74076,,,,,,,,,,,,1.07,1253.38,
54.58,1078.61,0.41,13.35,0,,0.08,58.76,,-63.03,0,3.51,,31770.25,14335.25,28.60688,-80.74658,,,,,,,,,,,,0.93,1223.58,
55.6,1066.49,0.35,12.78,0,,0.08,58.48,,-63.03,0,3.46,,32704.08,14901.94,28.60681,-80.75239,,,,,,,,,,,,0.82,1196.49,
56.62,1054.94,0.3,12.3,0,,0.08,58.2,,-63.03,0,3.4,,33624.86,15466.79,28.60675,-80.75817,,,,,,,,,,,,0.72,1171.65,
57.62,1044.09,0.25,11.91,0,,0.08,57.92,,-63.03,0,3.36,,34515.33,16019.03,28.60669,-80.76383,,,,,,,,,,,,0.63,1149.14,
58.64,1033.45,0.22,11.57,0,,0.08,57.63,,-63.02,0,3.31,,35411.49,16580.96,28.60663,-80.76959,,,,,,,,,,,,0.56,1127.79,
59.64,1023.37,0.19,11.29,0,,0.08,57.33,,-63.02,0,3.26,,36278.51,17130.71,28.60657,-80.77522,,,,,,,,,,,,0.49,1108.26,
60.66,1013.41,0.16,11.05,0,,0.08,57.03,,-63.02,0,3.22,,37151.34,17690.45,28.60651,-80.78095,,,,,,,,,,,,0.44,1089.59,
61.66,1003.91,0.14,10.85,0,,0.08,56.73,,-63.02,0,3.17,,37995.97,18238.35,28.60645,-80.78656,,,,,,,,,,,,0.39,1072.37,
62.66,994.64,0.12,10.67,0,,0.08,56.42,,-63.01,0,3.13,,38829.83,18785.52,28.60639,-80.79217,,,,,,,,,,,,0.35,1056.12,
63.68,985.41,0.1,10.52,0,,0.08,56.1,,-63.01,0,3.09,,39669.43,19342.97,28.60632,-80.79788,,,,,,,,,,,,0.31,1040.42,
64.7,976.36,0.08,10.39,0,,0.08,55.77,,-63.01,0,3.05,,40498.14,19899.85,28.60626,-80.80358,,,,,,,,,,,,0.28,1025.54,
65.72,967.49,0.07,10.27,0,,0.08,55.44,,-63.01,0,3.01,,41316.09,20456.24,28.6062,-80.80928,,,,,,,,,,,,0.25,1011.38,
66.72,958.93,0.06,10.18,0,,0.08,55.11,,-63.01,0,2.97,,42107.66,21001.31,28.60614,-80.81486,,,,,,,,,,,,0.23,998.16,
67.72,950.48,0.05,10.13,0,,0.08,54.78,,-63,0,2.94,,42889.07,21546.02,28.60608,-80.82044,,,,,,,,,,,,0.2,985.5,
68.72,942.12,0.05,10.08,0,,0.08,54.44,,-63,0,2.9,,43660.38,22090.4,28.60602,-80.82602,,,,,,,,,,,,0.18,973.37,
69.74,933.67,0.04,10.04,0,,0.08,54.08,,-63,0,2.86,,44436.74,22645.36,28.60596,-80.8317,,,,,,,,,,,,0.17,961.49,
70.74,925.46,0.04,10.01,0,,0.08,53.73,,-63,0,2.83,,45187.76,23189.16,28.6059,-80.83727,,,,,,,,,,,,0.15,950.3,
71.74,917.33,0.04,9.98,0,,0.08,53.37,,-63,0,2.8,,45928.8,23732.7,28.60584,-80.84284,,,,,,,,,,,,0.14,939.53,
72.74,909.27,0.03,9.95,0,,0.08,53.01,,-62.99,0,2.77,,46659.87,24276.01,28.60578,-80.84841,,,,,,,,,,,,0.13,929.14,
73.74,901.28,0.03,9.92,0,,0.08,52.64,,-62.99,0,2.74,,47381.02,24819.09,28.60572,-80.85397,,,,,,,,,,,,0.11,919.09,
74.74,893.35,0.03,9.9,0,,0.08,52.26,,-62.99,0,2.71,,48092.26,25361.97,28.60566,-80.85953,,,,,,,,,,,,0.1,909.36,
75.74,885.48,0.03,9.88,0,,0.08,51.87,,-62.99,0,2.69,,48793.62,25904.66,28.6056,-80.86509,,,,,,,,,,,,0.1,899.91,
76.74,877.68,0.02,9.86,0,,0.08,51.48,,-62.99,0,2.67,,49485.11,26447.17,28.60554,-80.87064,,,,,,,,,,,,0.09,890.74,
77.76,869.79,0.02,9.84,0,,0.08,51.08,,-62.98,0,2.64,,50180.3,27000.35,28.60548,-80.87631,,,,,,,,,,,,0.08,881.62,
78.76,862.11,0.02,9.83,0,,0.08,50.67,,-62.98,0,2.62,,50851.93,27542.53,28.60542,-80.88186,,,,,,,,,,,,0.07,872.89,
79.78,854.34,0.02,9.81,0,,0.08,50.25,,-62.98,0,2.6,,51526.88,28095.39,28.60536,-80.88753,,,,,,,,,,,,0.07,864.19,
80.8,846.63,0.02,9.8,0,,0.08,49.83,,-62.98,0,2.58,,52191.64,28648.11,28.6053,-80.89319,,,,,,,,,,,,0.06,855.65,
81.8,839.13,0.02,9.79,0,,0.08,49.4,,-62.98,0,2.57,,52833.48,29189.86,28.60524,-80.89874,,,,,,,,,,,,0.06,847.44,
82.8,831.69,0.01,9.78,0,,0.08,48.97,,-62.97,0,2.55,,53465.55,29731.48,28.60518,-80.90428,,,,,,,,,,,,0.05,839.37,
83.8,824.31,0.01,9.77,0,,0.08,48.53,,-62.97,0,2.53,,54087.85,30272.98,28.60512,-80.90983,,,,,,,,,,,,0.05,831.41,
84.82,816.85,0.01,9.76,0,,0.08,48.07,,-62.97,0.01,2.52,,54712.55,30825.19,28.60506,-80.91549,,,,,,,,,,,,0.05,823.39,
85.84,809.45,0.01,9.75,0,,0.08,47.6,,-62.97,0.01,2.5,,55327.12,31377.29,28.605,-80.92114,,,,,,,,,,,,0.04,815.47,
86.84,802.25,0.01,9.74,0,,0.08,47.14,,-62.97,0.01,2.49,,55919.8,31918.46,28.60494,-80.92669,,,,,,,,,,,,0.04,807.82,
87.86,794.98,0.01,9.73,0,,0.08,46.66,,-62.96,0.01,2.47,,56514.31,32470.34,28.60488,-80.93234,,,,,,,,,,,,0.04,800.11,
88.86,787.91,0.01,9.73,0,,0.08,46.18,,-62.96,0.01,2.46,,57087.34,33011.32,28.60482,-80.93788,,,,,,,,,,,,0.03,792.65,
89.86,780.91,0.01,9.72,0,,0.08,45.69,,-62.96,0.01,2.45,,57650.66,33552.2,28.60476,-80.94342,,,,,,,,,,,,0.03,785.29,
90.86,773.97,0.01,9.71,0,,0.08,45.19,,-62.96,0.01,2.43,,58204.28,34092.99,28.6047,-80.94896,,,,,,,,,,,,0.03,778.01,
91.88,766.95,0.01,9.71,0,,0.08,44.67,,-62.96,0.01,2.42,,58758.97,34644.51,28.60464,-80.95461,,,,,,,,,,,,0.03,770.69,
92.9,760.01,0.01,9.7,0,,0.08,44.15,,-62.96,0.01,2.4,,59303.57,35195.95,28.60457,-80.96026,,,,,,,,,,,,0.02,763.45,
93.9,753.28,0.01,9.7,0,,0.08,43.62,,-62.95,0.01,2.39,,59827.7,35736.49,28.60451,-80.96579,,,,,,,,,,,,0.02,756.45,
94.9,746.61,0.01,9.69,0,,0.08,43.09,,-62.95,0.01,2.38,,60342.15,36276.96,28.60445,-80.97133,,,,,,,,,,,,0.02,749.53,
95.9,740.02,0.01,9.69,0,,0.08,42.54,,-62.95,0.02,2.36,,60846.92,36817.36,28.60439,-80.97686,,,,,,,,,,,,0.02,742.7,
96.9,733.49,0.01,9.68,0,,0.08,41.99,,-62.95,0.02,2.35,,61342.01,37357.69,28.60434,-80.9824,,,,,,,,,,,,0.02,735.96,
97.9,727.04,0.01,9.68,0,,0.08,41.43,,-62.95,0.02,2.34,,61827.42,37897.95,28.60428,-80.98793,,,,,,,,,,,,0.02,729.3,
98.9,720.67,0.01,9.68,0,,0.08,40.86,,-62.95,0.02,2.32,,62303.17,38438.15,28.60422,-80.99346,,,,,,,,,,,,0.02,722.74,
99.92,714.25,0.01,9.67,0,,0.08,40.27,,-62.94,0.02,2.31,,62778.48,38989.09,28.60415,-80.99911,,,,,,,,,,,,0.02,716.14,
100.92,708.04,0.01,9.67,0,,0.08,39.67,,-62.94,0.02,2.3,,63234.71,39529.16,28.60409,-81.00464,,,,,,,,,,,,0.01,709.77,
101.92,701.9,0.01,9.67,0,,0.08,39.07,,-62.94,0.03,2.28,,63681.28,40069.18,28.60404,-81.01017,,,,,,,,,,,,0.01,703.49,
102.92,695.85,0,9.66,0,,0.08,38.46,,-62.94,0.03,2.27,,64118.2,40609.14,28.60398,-81.0157,,,,,,,,,,,,0.01,697.3,
103.92,689.89,0,9.66,0,,0.08,37.84,,-62.94,0.03,2.26,,64545.46,41149.05,28.60392,-81.02123,,,,,,,,,,,,0.01,691.22,
104.94,683.89,0,9.66,0,,0.08,37.19,,-62.94,0.03,2.24,,64971.33,41699.7,28.60385,-81.02687,,,,,,,,,,,,0.01,685.11,
105.94,678.1,0,9.65,0,,0.08,36.55,,-62.94,0.04,2.23,,65379.11,42239.5,28.60379,-81.0324,,,,,,,,,,,,0.01,679.22,
106.94,672.41,0,9.65,0,,0.08,35.9,,-62.93,0.04,2.22,,65777.25,42779.25,28.60374,-81.03793,,,,,,,,,,,,0.01,673.44,
107.94,666.8,0,9.65,0,,0.08,35.23,,-62.93,0.04,2.21,,66165.74,43318.96,28.60368,-81.04346,,,,,,,,,,,,0.01,667.75,
108.94,661.29,0,9.65,0,,0.08,34.55,,-62.93,0.04,2.19,,66544.6,43858.62,28.60362,-81.04898,,,,,,,,,,,,0.01,662.17,
109.94,655.88,0,9.64,0,,0.08,33.87,,-62.93,0.05,2.18,,66913.83,44398.24,28.60356,-81.05451,,,,,,,,,,,,0.01,656.7,
110.94,650.56,0,9.64,0,,0.08,33.17,,-62.93,0.05,2.17,,67273.42,44937.81,28.6035,-81.06004,,,,,,,,,,,,0.01,651.33,
111.94,645.35,0,9.64,0,,0.08,32.46,,-62.93,0.05,2.16,,67623.38,45477.34,28.60344,-81.06556,,,,,,,,,,,,0.01,646.07,
112.94,640.24,0,9.64,0,,0.08,31.74,,-62.93,0.06,2.14,,67963.71,46016.83,28.60338,-81.07109,,,,,,,,,,,,0.01,640.92,
113.94,635.24,0,9.64,0,,0.08,31.01,,-62.93,0.06,2.13,,68294.42,46556.28,28.60332,-81.07662,,,,,,,,,,,,0.01,635.87,
114.94,630.34,0,9.63,0,,0.08,30.27,,-62.92,0.07,2.12,,68615.5,47095.69,28.60326,-81.08214,,,,,,,,,,,,0.01,630.95,
115.96,625.46,0,9.63,0,,0.08,29.5,,-62.92,0.07,2.11,,68933.09,47645.85,28.6032,-81.08778,,,,,,,,,,,,0.01,626.04,
116.96,620.8,0,9.63,0,,0.08,28.74,,-62.92,0.07,2.1,,69234.73,48185.19,28.60314,-81.0933,,,,,,,,,,,,0.01,621.34,
117.96,616.24,0,9.63,0,,0.08,27.96,,-62.92,0.08,2.09,,69526.75,48724.48,28.60308,-81.09882,,,,,,,,,,,,0.01,616.76,
118.98,611.72,0,9.63,0,,0.08,27.16,,-62.92,0.08,2.08,,69814.71,49274.53,28.60302,-81.10446,,,,,,,,,,,,0.01,612.22,
119.98,607.41,0,9.63,0,,0.08,26.36,,-62.92,0.09,2.07,,70087.3,49813.76,28.60296,-81.10998,,,,,,,,,,,,0.01,607.89,
120.98,603.22,0,9.63,0,,0.08,25.55,,-62.92,0.09,2.05,,70350.28,50352.96,28.6029,-81.1155,,,,,,,,,,,,0.01,603.68,
121.98,599.15,0,9.62,0,,0.08,24.73,,-62.92,0.1,2.04,,70603.65,50892.12,28.60284,-81.12103,,,,,,,,,,,,0,599.6,
123,595.14,0,9.62,0,,0.08,23.88,,-62.92,0.1,2.03,,70852.18,51442.03,28.60277,-81.12666,,,,,,,,,,,,0,595.57,
124,591.34,0,9.62,0,,0.08,23.04,,-62.92,0.1,2.02,,71086.12,51981.13,28.60271,-81.13218,,,,,,,,,,,,0,591.75,
125.02,587.6,0,9.62,0,,0.08,22.16,,-62.91,0.11,2.01,,71314.85,52530.98,28.60265,-81.13781,,,,,,,,,,,,0,587.99,
126.02,584.07,0,9.62,0,,0.08,21.3,,-62.91,0.11,2,,71529.39,53070.01,28.60259,-81.14333,,,,,,,,,,,,0,584.45,
127.02,580.67,0,9.62,0,,0.08,20.42,,-62.91,0.11,2,,71734.32,53609.02,28.60253,-81.14885,,,,,,,,,,,,0,581.04,
128.02,577.42,0,9.62,0,,0.08,19.53,,-62.91,0.12,1.99,,71929.64,54148,28.60247,-81.15437,,,,,,,,,,,,0,577.77,
129.02,574.31,0,9.62,0,,0.08,18.63,,-62.91,0.12,1.98,,72115.35,54686.94,28.60241,-81.15989,,,,,,,,,,,,0,574.64,
130.02,571.34,0,9.62,0,,0.08,17.72,,-62.91,0.12,1.97,,72291.46,55225.87,28.60235,-81.16541,,,,,,,,,,,,0,571.66,
131.04,568.47,0,9.61,0,,0.08,16.78,,-62.91,0.12,1.96,,72461.2,55775.54,28.60229,-81.17104,,,,,,,,,,,,0,568.77,
132.04,565.8,0,9.61,0,,0.08,15.85,,-62.91,0.12,1.95,,72617.91,56314.41,28.60223,-81.17656,,,,,,,,,,,,0,566.09,
133.04,563.28,0,9.61,0,,0.08,14.91,,-62.91,0.12,1.95,,72765.02,56853.25,28.60217,-81.18208,,,,,,,,,,,,0,563.55,
134.04,560.92,0,9.61,0,,0.08,13.96,,-62.91,0.12,1.94,,72902.53,57392.07,28.60211,-81.1876,,,,,,,,,,,,0,561.17,
135.04,558.71,0,9.61,0,,0.08,13,,-62.91,0.12,1.93,,73030.44,57930.86,28.60205,-81.19312,,,,,,,,,,,,0,558.95,
136.04,556.66,0,9.61,0,,0.08,12.03,,-62.91,0.12,1.93,,73148.74,58469.63,28.60199,-81.19864,,,,,,,,,,,,0,556.88,
137.04,554.77,0,9.61,0,,0.08,11.06,,-62.91,0.11,1.92,,73257.45,59008.38,28.60193,-81.20416,,,,,,,,,,,,0,554.97,
138.06,553,0,9.61,0,,0.08,10.05,,-62.91,0.11,1.92,,73358.44,59557.88,28.60187,-81.20979,,,,,,,,,,,,0,553.18,
139.06,551.43,0,9.61,0,,0.08,9.06,,-62.91,0.11,1.91,,73447.76,60096.58,28.60181,-81.2153,,,,,,,,,,,,0,551.6,
140.06,550.03,0,9.61,0,,0.08,8.06,,-62.91,0.1,1.91,,73527.48,60635.26,28.60175,-81.22082,,,,,,,,,,,,0,550.17,
141.08,548.76,0,9.61,0,,0.08,7.03,,-62.91,0.09,1.9,,73598.91,61184.69,28.60169,-81.22645,,,,,,,,,,,,0,548.89,
142.08,547.69,0,9.61,0,,0.08,6.02,,-62.91,0.09,1.9,,73659.25,61723.33,28.60163,-81.23196,,,,,,,,,,,,0,547.8,
143.08,546.78,0,9.61,0,,0.08,5,,-62.91,0.08,1.9,,73709.99,62261.95,28.60157,-81.23748,,,,,,,,,,,,0,546.87,
144.08,546.04,0,9.61,0,,0.08,3.98,,-62.91,0.07,1.9,,73751.14,62800.54,28.60151,-81.243,,,,,,,,,,,,0,546.12,
145.08,545.47,0,9.61,0,,0.08,2.95,,-62.91,0.06,1.89,,73782.69,63339.12,28.60145,-81.24851,,,,,,,,,,,,0,545.53,
146.08,545.07,0,9.61,0,,0.08,1.92,,-62.91,0.05,1.89,,73804.64,63877.68,28.60139,-81.25403,,,,,,,,,,,,0,545.1,
147.1,544.83,0,9.61,0,,0.08,0.87,,-62.91,0.04,1.89,,73817.15,64427,28.60133,-81.25966,,,,,,,,,,,,0,544.84,
148.1,544.76,0,9.6,0,,0.08,-0.17,,-62.91,0.02,1.89,,73819.73,64965.52,28.60127,-81.26517,,,,,,,,,,,,0,544.76,
149.1,544.87,0,9.6,0,,0.08,-1.21,,-62.91,0.01,1.89,,73812.71,65504.03,28.60121,-81.27069,,,,,,,,,,,,0,544.85,
150.1,545.14,0,9.6,0,,0.08,-2.25,,-62.91,0,1.89,,73796.1,66042.52,28.60115,-81.2762,,,,,,,,,,,,0,545.1,
151.1,545.58,0,9.6,0,,0.08,-3.29,,-62.91,-0.02,1.89,,73769.89,66580.99,28.60109,-81.28172,,,,,,,,,,,,0,545.52,
152.1,546.19,0,9.6,0,,0.08,-4.32,,-62.91,-0.03,1.9,,73734.09,67119.45,28.60103,-81.28723,,,,,,,,,,,,0,546.11,
153.1,546.96,0,9.6,0,,0.08,-5.36,,-62.91,-0.05,1.9,,73688.7,67657.89,28.60097,-81.29275,,,,,,,,,,,,0,546.87,
154.1,547.9,0,9.6,0,,0.08,-6.39,,-62.91,-0.06,1.9,,73633.72,68196.32,28.60091,-81.29826,,,,,,,,,,,,0,547.79,
155.1,549.01,0,9.6,0,,0.08,-7.41,,-62.91,-0.08,1.9,,73569.14,68734.73,28.60085,-81.30378,,,,,,,,,,,,0,548.88,
156.12,550.31,0,9.6,0,,0.08,-8.46,,-62.91,-0.09,1.91,,73493.39,69283.89,28.60079,-81.3094,,,,,,,,,,,,0,550.16,
157.12,551.75,0,9.6,0,,0.08,-9.47,,-62.91,-0.1,1.91,,73409.44,69822.28,28.60073,-81.31492,,,,,,,,,,,,0,551.58,
158.14,553.38,0,9.6,0,,0.08,-10.5,,-62.91,-0.12,1.92,,73313.92,70371.41,28.60067,-81.32054,,,,,,,,,,,,0,553.2,
159.16,555.18,0,9.6,0,,0.08,-11.52,,-62.91,-0.13,1.92,,73208.43,70920.53,28.60061,-81.32617,,,,,,,,,,,,0,554.98,
160.16,557.11,0,9.6,0,,0.08,-12.5,,-62.91,-0.14,1.93,,73095.31,71458.86,28.60055,-81.33168,,,,,,,,,,,,0,556.89,
161.18,559.24,0,9.6,0,,0.08,-13.5,,-62.91,-0.14,1.93,,72970.05,72007.95,28.60048,-81.3373,,,,,,,,,,,,0,559,
162.18,561.48,0,9.6,0,,0.08,-14.47,,-62.91,-0.15,1.94,,72837.56,72546.26,28.60042,-81.34282,,,,,,,,,,,,0,561.22,
163.18,563.87,0,9.6,0,,0.08,-15.43,,-62.91,-0.16,1.95,,72695.48,73084.56,28.60036,-81.34833,,,,,,,,,,,,0,563.6,
164.18,566.42,0,9.6,0,,0.08,-16.37,,-62.91,-0.16,1.95,,72543.8,73622.84,28.6003,-81.35384,,,,,,,,,,,,0,566.13,
165.18,569.12,0,9.6,0,,0.08,-17.3,,-62.91,-0.16,1.96,,72382.53,74161.11,28.60024,-81.35936,,,,,,,,,,,,0,568.82,
166.2,572.02,0,9.6,0,,0.08,-18.23,,-62.91,-0.16,1.97,,72208.15,74710.13,28.60018,-81.36498,,,,,,,,,,,,0,571.7,
167.2,575.02,0,9.6,0,,0.08,-19.13,,-62.91,-0.15,1.98,,72027.5,75248.38,28.60012,-81.37049,,,,,,,,,,,,0,574.68,
168.22,578.22,0,9.61,0,,0.08,-20.04,,-62.92,-0.15,1.99,,71833.36,75797.37,28.60006,-81.37612,,,,,,,,,,,,0,577.86,
169.22,581.5,0,9.61,0,,0.08,-20.91,,-62.92,-0.14,1.99,,71633.33,76335.59,28.6,-81.38163,,,,,,,,,,,,0,581.13,
170.22,584.91,0,9.61,0,,0.08,-21.77,,-62.92,-0.13,2,,71423.71,76873.79,28.59994,-81.38714,,,,,,,,,,,,0,584.53,
171.22,588.47,0,9.61,0,,0.08,-22.62,,-62.92,-0.12,2.01,,71204.5,77411.99,28.59988,-81.39265,,,,,,,,,,,,0,588.07,
172.22,592.16,0,9.61,0,,0.08,-23.45,,-62.92,-0.1,2.02,,70975.69,77950.17,28.59982,-81.39817,,,,,,,,,,,,0,591.75,
173.22,595.98,0,9.61,0,,0.08,-24.27,,-62.92,-0.09,2.03,,70737.29,78488.33,28.59976,-81.40368,,,,,,,,,,,,0,595.55,
174.22,599.92,0,9.61,0,,0.08,-25.08,,-62.92,-0.08,2.04,,70489.3,79026.49,28.5997,-81.40919,,,,,,,,,,,,0,599.49,
175.22,604,0,9.61,0,,0.08,-25.88,,-62.92,-0.07,2.05,,70231.71,79564.64,28.59964,-81.4147,,,,,,,,,,,,0.01,603.55,
176.22,608.19,0,9.61,0,,0.08,-26.67,,-62.92,-0.06,2.06,,69964.53,80102.77,28.59958,-81.42021,,,,,,,,,,,,0.01,607.74,
177.22,612.51,0,9.61,0,,0.08,-27.46,,-62.93,-0.05,2.07,,69687.75,80640.89,28.59952,-81.42572,,,,,,,,,,,,0.01,612.05,
178.22,616.95,0,9.61,0,,0.08,-28.24,,-62.93,-0.04,2.08,,69401.38,81179,28.59946,-81.43124,,,,,,,,,,,,0.01,616.48,
179.22,621.5,0,9.61,0,,0.08,-29.01,,-62.93,-0.04,2.1,,69105.41,81717.09,28.59939,-81.43675,,,,,,,,,,,,0.01,621.03,
180.22,626.17,0,9.61,0,,0.08,-29.77,,-62.93,-0.03,2.11,,68799.85,82255.18,28.59933,-81.44226,,,,,,,,,,,,0.01,625.69,
181.22,630.94,0,9.61,0,,0.08,-30.53,,-62.93,-0.03,2.12,,68484.69,82793.25,28.59927,-81.44777,,,,,,,,,,,,0.01,630.47,
182.22,635.83,0,9.61,0,,0.08,-31.28,,-62.93,-0.04,2.13,,68159.94,83331.31,28.59921,-81.45328,,,,,,,,,,,,0.01,635.37,
183.24,640.92,0,9.61,0,,0.08,-32.05,,-62.93,-0.04,2.14,,67818.81,83880.12,28.59915,-81.4589,,,,,,,,,,,,0.01,640.47,
184.26,646.11,0,9.61,0,,0.08,-32.8,,-62.93,-0.05,2.15,,67467.7,84428.92,28.59909,-81.46452,,,,,,,,,,,,0.01,645.69,
185.28,651.42,0,9.61,0,,0.08,-33.54,,-62.94,-0.05,2.16,,67106.6,84977.7,28.59903,-81.47014,,,,,,,,,,,,0.01,651.02,
186.28,656.72,0,9.61,0,,0.08,-34.26,,-62.94,-0.06,2.18,,66742.89,85515.71,28.59897,-81.47565,,,,,,,,,,,,0.01,656.35,
187.28,662.11,0,9.61,0,,0.08,-34.96,,-62.94,-0.07,2.19,,66369.58,86053.71,28.59891,-81.48116,,,,,,,,,,,,0.01,661.78,
188.3,667.71,0,9.61,0,,0.08,-35.65,,-62.94,-0.07,2.2,,65978.92,86602.45,28.59884,-81.48678,,,,,,,,,,,,0.01,667.42,
189.3,673.29,0,9.61,0,,0.08,-36.32,,-62.94,-0.07,2.21,,65586.23,87140.42,28.59878,-81.49229,,,,,,,,,,,,0.01,673.06,
190.3,678.95,0,9.61,0,,0.08,-36.96,,-62.94,-0.06,2.23,,65183.94,87678.37,28.59872,-81.4978,,,,,,,,,,,,0.01,678.79,
191.32,684.82,0,9.61,0,,0.08,-37.6,,-62.95,-0.05,2.24,,64763.72,88227.06,28.59866,-81.50342,,,,,,,,,,,,0.01,684.74,
192.32,690.66,0,9.61,0,,0.08,-38.21,,-62.95,-0.04,2.25,,64342.05,88764.97,28.5986,-81.50893,,,,,,,,,,,,0.01,690.66,
193.32,696.58,0,9.61,0,,0.08,-38.8,,-62.95,-0.03,2.27,,63910.78,89302.87,28.59854,-81.51444,,,,,,,,,,,,0.01,696.68,
194.32,702.59,0,9.61,0,,0.08,-39.39,,-62.95,-0.01,2.28,,63469.92,89840.75,28.59848,-81.51995,,,,,,,,,,,,0.01,702.79,
195.34,708.78,0.01,9.6,0,,0.08,-39.97,,-62.95,0,2.29,,63010.35,90389.37,28.59842,-81.52557,,,,,,,,,,,,0.01,709.11,
196.34,714.94,0.01,9.6,0,,0.08,-40.55,,-62.95,0.01,2.31,,62550.11,90927.2,28.59836,-81.53108,,,,,,,,,,,,0.02,715.4,
197.36,721.29,0.01,9.6,0,,0.08,-41.14,,-62.95,0.01,2.32,,62070.79,91475.77,28.59829,-81.5367,,,,,,,,,,,,0.02,721.91,
198.38,727.72,0.01,9.6,0,,0.08,-41.74,,-62.96,0,2.33,,61581.48,92024.32,28.59823,-81.54232,,,,,,,,,,,,0.02,728.5,
199.38,734.09,0.01,9.6,0,,0.08,-42.32,,-62.96,-0.01,2.34,,61092.09,92562.08,28.59817,-81.54782,,,,,,,,,,,,0.02,735.04,
200.4,740.65,0.01,9.6,0,,0.08,-42.91,,-62.96,-0.02,2.36,,60583.03,93110.57,28.59811,-81.55344,,,,,,,,,,,,0.02,741.8,
201.4,747.15,0.01,9.6,0,,0.08,-43.47,,-62.96,-0.03,2.37,,60074.26,93648.28,28.59805,-81.55895,,,,,,,,,,,,0.02,748.51,
202.4,753.72,0.01,9.6,0,,0.08,-44.02,,-62.96,-0.03,2.38,,59555.91,94185.96,28.59799,-81.56446,,,,,,,,,,,,0.02,755.29,
203.4,760.34,0.01,9.6,0,,0.08,-44.54,,-62.97,-0.03,2.4,,59027.98,94723.6,28.59793,-81.56996,,,,,,,,,,,,0.03,762.16,
204.42,767.16,0.01,9.59,0,,0.08,-45.04,,-62.97,-0.02,2.41,,58479.61,95271.95,28.59787,-81.57558,,,,,,,,,,,,0.03,769.24,
205.44,774.04,0.01,9.59,0,,0.08,-45.52,,-62.97,-0.01,2.42,,57921.27,95820.27,28.5978,-81.58119,,,,,,,,,,,,0.03,776.4,
206.44,780.84,0.01,9.59,0,,0.08,-45.99,,-62.97,0.01,2.44,,57364.21,96357.8,28.59774,-81.5867,,,,,,,,,,,,0.03,783.49,
207.46,787.83,0.01,9.58,0,,0.08,-46.47,,-62.97,0.01,2.45,,56786.15,96906.03,28.59768,-81.59232,,,,,,,,,,,,0.03,790.81,
208.48,794.87,0.01,9.58,0,,0.08,-46.97,,-62.97,0.01,2.46,,56198.12,97454.21,28.59762,-81.59793,,,,,,,,,,,,0.04,798.22,
209.48,801.83,0.01,9.58,0,,0.08,-47.47,,-62.98,0,2.48,,55611.96,97991.6,28.59756,-81.60343,,,,,,,,,,,,0.04,805.55,
210.48,808.83,0.01,9.57,0,,0.08,-47.97,,-62.98,-0.02,2.49,,55016.24,98528.94,28.5975,-81.60894,,,,,,,,,,,,0.04,812.97,
211.48,815.88,0.01,9.57,0,,0.08,-48.44,,-62.98,-0.02,2.51,,54410.96,99066.22,28.59743,-81.61444,,,,,,,,,,,,0.05,820.48,
212.48,822.97,0.01,9.57,0,,0.08,-48.87,,-62.98,-0.02,2.52,,53796.11,99603.44,28.59737,-81.61994,,,,,,,,,,,,0.05,828.05,
213.48,830.1,0.01,9.56,0,,0.08,-49.27,,-62.98,0,2.54,,53171.72,100140.59,28.59731,-81.62544,,,,,,,,,,,,0.06,835.71,
214.48,837.27,0.02,9.55,0,,0.08,-49.68,,-62.98,0.01,2.55,,52537.78,100677.67,28.59725,-81.63094,,,,,,,,,,,,0.06,843.46,
215.5,844.63,0.02,9.54,0,,0.08,-50.11,,-62.99,0.01,2.57,,51881.34,101225.41,28.59719,-81.63655,,,,,,,,,,,,0.07,851.48,
216.5,851.87,0.02,9.53,0,,0.08,-50.56,,-62.99,0,2.59,,51228.15,101762.34,28.59713,-81.64205,,,,,,,,,,,,0.07,859.46,
217.52,859.29,0.02,9.53,0,,0.08,-51.01,,-62.99,-0.02,2.61,,50552.08,102309.91,28.59707,-81.64766,,,,,,,,,,,,0.08,867.74,
218.52,866.6,0.02,9.52,0,,0.08,-51.41,,-62.99,-0.01,2.63,,49879.67,102846.64,28.597,-81.65316,,,,,,,,,,,,0.08,876,
219.54,874.08,0.02,9.5,0,,0.08,-51.78,,-62.99,0,2.65,,49184.01,103394,28.59694,-81.65877,,,,,,,,,,,,0.09,884.6,
220.54,881.44,0.03,9.49,0,,0.08,-52.14,,-63,0.01,2.67,,48492.42,103930.51,28.59688,-81.66426,,,,,,,,,,,,0.1,893.21,
221.54,888.82,0.03,9.47,0,,0.08,-52.55,,-63,0,2.7,,47791.36,104466.9,28.59682,-81.66975,,,,,,,,,,,,0.11,902.02,
222.54,896.21,0.03,9.46,0,,0.08,-52.97,,-63,-0.01,2.72,,47080.84,105003.16,28.59676,-81.67525,,,,,,,,,,,,0.12,911.05,
223.54,903.62,0.03,9.44,0,,0.08,-53.32,,-63,-0.01,2.75,,46360.88,105539.26,28.5967,-81.68074,,,,,,,,,,,,0.13,920.3,
224.54,911.04,0.04,9.41,0,,0.08,-53.65,,-63,0.01,2.78,,45631.51,106075.19,28.59664,-81.68623,,,,,,,,,,,,0.14,929.8,
225.54,918.47,0.04,9.38,0,,0.08,-54.02,,-63.01,0,2.81,,44892.74,106610.95,28.59658,-81.69171,,,,,,,,,,,,0.16,939.56,
226.54,925.9,0.04,9.36,0,,0.08,-54.41,,-63.01,-0.01,2.84,,44144.6,107146.52,28.59651,-81.6972,,,,,,,,,,,,0.17,949.61,
227.54,933.32,0.05,9.33,0,,0.08,-54.73,,-63.01,0,2.87,,43387.13,107681.86,28.59645,-81.70268,,,,,,,,,,,,0.19,959.94,
228.54,940.74,0.05,9.28,0,,0.08,-55.05,,-63.01,0.01,2.9,,42620.36,108216.97,28.59639,-81.70816,,,,,,,,,,,,0.21,970.58,
229.56,948.28,0.06,9.25,0,,0.08,-55.44,,-63.01,-0.01,2.94,,41828.71,108762.5,28.59633,-81.71375,,,,,,,,,,,,0.23,981.75,
230.58,955.78,0.07,9.17,0,,0.08,-55.76,,-63.01,0,2.97,,41027.47,109307.73,28.59627,-81.71933,,,,,,,,,,,,0.26,993.21,
231.6,963.2,0.08,9.07,0,,0.08,-56.07,,-63.02,0.01,3.01,,40216.73,109852.59,28.5962,-81.72491,,,,,,,,,,,,0.29,1004.9,
232.62,970.52,0.09,8.97,0,,0.08,-56.44,,-63.02,-0.01,3.04,,39396.6,110397.02,28.59614,-81.73049,,,,,,,,,,,,0.32,1016.81,
233.62,977.57,0.11,8.84,0,,0.08,-56.72,,-63.02,0.01,3.08,,38583.55,110930.28,28.59608,-81.73595,,,,,,,,,,,,0.36,1028.68,
234.62,984.49,0.13,8.71,0,,0.08,-57.06,,-63.02,-0.01,3.11,,37761.72,111462.98,28.59602,-81.74141,,,,,,,,,,,,0.4,1040.7,
235.62,991.25,0.15,8.54,0,,0.08,-57.34,,-63.02,0.01,3.14,,36931.27,111995.01,28.59596,-81.74686,,,,,,,,,,,,0.45,1052.86,
236.62,997.81,0.17,8.36,0,,0.08,-57.66,,-63.03,0,3.18,,36092.36,112526.27,28.5959,-81.7523,,,,,,,,,,,,0.5,1065.09,
237.62,1004.15,0.2,8.15,0,,0.08,-57.94,,-63.03,0.01,3.21,,35245.21,113056.64,28.59584,-81.75773,,,,,,,,,,,,0.57,1077.35,
238.62,1010.23,0.23,7.92,0,,0.08,-58.26,,-63.03,-0.01,3.24,,34390.05,113585.99,28.59578,-81.76315,,,,,,,,,,,,0.64,1089.56,
239.62,1016,0.26,7.64,0,,0.08,-58.53,,-63.03,0,3.27,,33527.13,114114.16,28.59572,-81.76856,,,,,,,,,,,,0.72,1101.64,
240.62,1021.41,0.3,7.36,0,,0.08,-58.82,,-63.03,0,3.3,,32656.78,114640.97,28.59566,-81.77396,,,,,,,,,,,,0.82,1113.48,
241.62,1026.42,0.35,7.03,0,,0.08,-59.11,,-63.03,0,3.33,,31779.35,115166.22,28.59559,-81.77934,,,,,,,,,,,,0.93,1125.01,
242.64,1031.03,0.41,6.64,0,,0.08,-59.39,,-63.04,0,3.36,,30877.5,115700.13,28.59553,-81.7848,,,,,,,,,,,,1.06,1136.3,
243.66,1035.06,0.47,6.23,0,,0.08,-59.67,,-63.04,0,3.39,,29969.21,116231.9,28.59547,-81.79025,,,,,,,,,,,,1.21,1146.95,
244.66,1038.36,0.54,5.82,0,,0.08,-59.94,,-63.04,0,3.42,,29073.05,116750.87,28.59541,-81.79557,,,,,,,,,,,,1.38,1156.48,
245.68,1040.96,0.62,5.41,0,,0.08,-60.21,,-63.04,0,3.44,,28153.81,117277.43,28.59535,-81.80096,,,,,,,,,,,,1.58,1164.97,
246.68,1042.64,0.72,5.06,0,,0.08,-60.48,,-63.04,0,3.46,,27248.3,117790.54,28.59529,-81.80621,,,,,,,,,,,,1.81,1171.85,
247.7,1043.35,0.83,4.83,0,,0.08,-60.75,,-63.04,0,3.48,,26321.16,118310.27,28.59523,-81.81154,,,,,,,,,,,,2.09,1177.13,
248.7,1042.92,0.95,4.85,0,,0.08,-61.02,,-63.04,0,3.49,,25409.7,118815.72,28.59517,-81.81671,,,,,,,,,,,,2.4,1180.32,
249.7,1041.2,1.09,5.22,0,,0.08,-61.28,,-63.04,0,3.5,,24496.87,119316.58,28.59512,-81.82184,,,,,,,,,,,,2.76,1181.23,
250.7,1038.04,1.24,5.95,0,,0.08,-61.54,,-63.04,0,3.5,,23583.91,119812.21,28.59506,-81.82692,,,,,,,,,,,,3.18,1179.53,
251.7,1033.25,1.42,7.09,0,,0.08,-61.8,,-63.04,0,3.5,,22672.2,120301.9,28.595,-81.83193,,,,,,,,,,,,3.66,1174.88,
252.72,1026.46,1.62,8.62,0,,0.08,-62.06,,-63.04,0,3.5,,21745.2,120794.46,28.59494,-81.83698,,,,,,,,,,,,4.24,1166.73,
253.74,1017.54,1.84,10.49,0,,0.08,-62.33,,-63.04,0,3.48,,20823.01,121279.11,28.59489,-81.84194,,,,,,,,,,,,4.91,1154.87,
254.74,1006.49,2.08,12.63,0,,0.08,-62.58,,-63.04,0,3.47,,19925.61,121745.6,28.59483,-81.84672,,,,,,,,,,,,5.66,1139.1,
255.76,992.65,2.35,15.07,0,,0.08,-62.85,,-63.04,0,3.44,,19019.36,122211.51,28.59478,-81.85149,,,,,,,,,,,,6.55,1117.92,
256.76,976.4,2.62,17.64,0,,0.08,-63.11,,-63.04,0,3.39,,18142.21,122657.43,28.59473,-81.85606,,,,,,,,,,,,7.56,1091.51,
257.76,957.42,2.91,20.31,0,,0.08,-63.38,,-63.04,0,3.34,,17278.75,123091.47,28.59467,-81.8605,,,,,,,,,,,,8.71,1059.42,
258.76,935.7,3.19,22.96,0,,0.08,-63.65,,-63.04,0,3.26,,16431.53,123512.48,28.59463,-81.86482,,,,,,,,,,,,10,1022.15,
259.76,911.38,3.45,25.45,0,,0.08,-63.92,,-63.04,0,3.17,,15603.01,123919.39,28.59458,-81.86898,,,,,,,,,,,,11.45,980.87,
260.76,884.71,3.68,27.66,0,,0.08,-64.2,,-63.03,0,3.06,,14795.5,124311.22,28.59453,-81.873,,,,,,,,,,,,13.06,937.36,
261.76,856.03,3.88,29.55,0,,0.08,-64.48,,-63.03,0,2.94,,14011.06,124687.16,28.59449,-81.87685,,,,,,,,,,,,14.81,893.84,
262.76,825.66,4.04,31.12,0,,0.08,-64.77,,-63.03,0,2.82,,13251.46,125046.56,28.59444,-81.88053,,,,,,,,,,,,16.7,851.47,
263.76,793.95,4.17,32.32,0,,0.08,-65.08,,-63.03,0,2.69,,12518.16,125388.94,28.5944,-81.88403,,,,,,,,,,,,18.73,810.76,
264.76,761.3,4.26,33.13,0,,0.08,-65.38,,-63.03,0,2.55,,11812.31,125713.98,28.59436,-81.88736,,,,,,,,,,,,20.88,771.88,
265.76,728.11,4.3,33.54,0,,0.08,-65.7,,-63.03,0,2.42,,11134.68,126021.57,28.59432,-81.89051,,,,,,,,,,,,23.15,734.82,
266.76,694.77,4.31,33.57,0,,0.08,-66.03,,-63.03,0,2.29,,10485.71,126311.77,28.59429,-81.89349,,,,,,,,,,,,25.51,699.42,
267.78,660.99,4.28,33.24,0,,0.08,-66.38,,-63.02,0,2.16,,9853.37,126590.08,28.59425,-81.89634,,,,,,,,,,,,28,664.77,
268.8,627.77,4.21,32.58,0,,0.08,-66.74,,-63.02,0,2.04,,9250.68,126850.93,28.59422,-81.89901,,,,,,,,,,,,30.56,631.32,
269.82,595.47,4.11,31.56,0,,0.08,-67.12,,-63.02,0,1.92,,8677.09,127094.84,28.59419,-81.90151,,,,,,,,,,,,33.18,598.9,
270.82,565.25,3.95,29.94,0,,0.08,-67.5,,-63.02,0,1.8,,8142.05,127318.22,28.59416,-81.90379,,,,,,,,,,,,35.78,568.49,
271.84,536.35,3.75,27.98,0,,0.08,-67.9,,-63.02,0,1.7,,7622.66,127530.92,28.59414,-81.90597,,,,,,,,,,,,38.46,539.37,
272.86,509.51,3.55,25.97,0,,0.08,-68.32,,-63.01,0,1.6,,7128.12,127729.34,28.59411,-81.908,,,,,,,,,,,,41.16,512.31,
273.88,484.61,3.36,24.16,0,,0.08,-68.75,,-63.01,0,1.52,,6656.64,127914.48,28.59409,-81.9099,,,,,,,,,,,,43.88,487.22,
274.9,461.24,3.23,22.81,0,,0.08,-69.19,,-63,0,1.44,,6206.68,128087.23,28.59406,-81.91167,,,,,,,,,,,,46.61,463.71,
275.92,438.83,3.17,22.18,0,,0.08,-69.65,,-63,0,1.36,,5777.15,128248.3,28.59404,-81.91332,,,,,,,,,,,,49.34,441.26,
276.92,415.33,3.43,24.69,0,,0.08,-70.11,,-62.99,0,1.28,,5376.1,128395.04,28.59402,-81.91482,,,,,,,,,,,,52.01,418.07,
277.94,387.79,3.79,28.19,0,,0.08,-70.6,,-62.99,0,1.19,,4990.33,128532.6,28.594,-81.91623,,,,,,,,,,,,54.69,390.9,
278.94,359.44,3.79,28.12,0,,0.08,-71.1,,-62.98,0,1.1,,4637.74,128654.91,28.59399,-81.91748,,,,,,,,,,,,57.24,362.47,
279.96,335.98,2.98,20.17,0,,0.08,-71.64,,-62.97,0,1.02,,4302.68,128767.75,28.59397,-81.91864,,,,,,,,,,,,59.75,338.02,
280.98,322.07,2.11,11.78,0,,0.08,-72.19,,-62.96,0,0.98,,3984.41,128871.58,28.59396,-81.9197,,,,,,,,,,,,62.22,323.23,
281.98,313.94,1.67,7.63,0,,0.08,-72.73,,-62.96,0,0.95,,3681.55,128967.19,28.59394,-81.92068,,,,,,,,,,,,64.65,314.67,
283,308.43,1.45,5.63,0,,0.08,-73.28,,-62.95,0,0.93,,3378.19,129059.79,28.59393,-81.92163,,,,,,,,,,,,67.16,308.94,
284,304.38,1.34,4.69,0,,0.08,-73.81,,-62.93,0,0.91,,3084.43,129146.47,28.59392,-81.92252,,,,,,,,,,,,69.67,304.79,
285.02,300.91,1.3,4.26,0,,0.08,-74.34,,-62.92,0,0.9,,2787.64,129231.07,28.59391,-81.92338,,,,,,,,,,,,72.28,301.27,
286.02,297.76,1.28,4.05,0,,0.08,-74.84,,-62.91,0,0.89,,2499.1,129310.51,28.59389,-81.9242,,,,,,,,,,,,74.9,298.1,
287.02,294.8,1.26,3.86,0,,0.08,-75.34,,-62.9,0,0.88,,2212.82,129386.63,28.59388,-81.92498,,,,,,,,,,,,77.58,295.12,
288.04,291.94,1.25,3.69,0,,0.08,-75.84,,-62.88,0,0.87,,1923.02,129461.01,28.59387,-81.92574,,,,,,,,,,,,80.38,292.24,
289.06,289.24,1.23,3.52,0,,0.08,-76.32,,-62.87,0,0.85,,1635.35,129532.24,28.59386,-81.92647,,,,,,,,,,,,83.24,289.52,
290.06,286.73,1.22,3.37,0,,0.08,-76.78,,-62.85,0,0.85,,1355.29,129599.13,28.59385,-81.92715,,,,,,,,,,,,86.11,287,
291.06,284.36,1.21,3.22,0,,0.08,-77.24,,-62.83,0,0.84,,1077.07,129663.23,28.59384,-81.92781,,,,,,,,,,,,89.05,288.65,
292.06,282.1,1.2,3.09,0,,0.08,-77.68,,-62.81,0,0.83,,800.62,129724.67,28.59383,-81.92844,,,,,,,,,,,,92.05,290.3,
293.06,279.93,1.19,2.97,0,,0.08,-78.11,,-62.79,0,0.82,,525.88,129783.54,28.59382,-81.92904,,,,,,,,,,,,95.11,291.9,
294.06,277.86,1.19,2.87,0,,0.08,-78.53,,-62.77,0,0.81,,252.77,129839.96,28.59381,-81.92962,,,,,,,,,,,,98.25,293.41,
