Time,Surface Speed (m/s),GForce (g),Acceleration (m/s^2),Thrust (kN),TWR,Mass (t),Pitch (deg),Heading (deg),Roll (deg),Angle of Attack (deg),Mach number,Altitude from Terrain (m),Altitude from the Sea (m),Downrange Distance (m),Latitude (deg),Longitude (deg),Apoapsis (m),Periapsis (m),Time to Apoapsis (s),Time to Periapsis (s),Inclination (deg),Orbital Velocity (m/s),Gravity (m/s^2),Target Distance (m),Target Speed (m/s),Stage DeltaV (m/s),Vessel DeltaV (m/s),Pressure (kPa),External Temperature (K),
1,82.85,9.09,80.76,26.16,,0.28,60.22,,-86.95,-0.01,0.22,,136.77,20.89,28.60838,-80.59996,,,,,,,,,,,,99.74,294.06,
2.02,167.96,9.48,84.82,26.19,,0.27,57.91,,-79.56,0,0.46,,246.61,87.41,28.60838,-80.60064,,,,,,,,,,,,98.47,293.49,
3.02,254.97,9.79,87.98,26.23,,0.26,56.44,,-71.78,0.01,0.72,,424.57,202.81,28.60838,-80.60182,,,,,,,,,,,,96.42,292.52,
4.02,342.39,9.63,86.57,26.29,,0.24,55.37,,-62.95,0,0.97,,672.64,371.19,28.60837,-80.60355,,,,,,,,,,,,93.63,333.07,
5.04,417.61,8.03,70.98,26.34,,0.23,54.49,,-56.33,0,1.2,,991.15,595.14,28.60836,-80.60584,,,,,,,,,,,,90.14,409.79,
6.04,493.86,8.86,79.23,26.4,,0.22,53.76,,-54.93,0,1.43,,1360.27,862.37,28.60834,-80.60858,,,,,,,,,,,,86.24,485.12,
7.06,529.47,2.56,33.46,0,,0.21,53.1,,-52.39,0,1.58,,1791.4,1182.39,28.60833,-80.61186,,,,,,,,,,,,81.86,534.29,
8.06,492.02,2.76,35.34,0,,0.16,52.43,,-58.31,0,1.47,,2197.03,1490.63,28.60831,-80.61501,,,,,,,,,,,,77.89,495.79,
9.08,477.7,0.44,6.99,4.58,,0.16,51.69,,-61.55,0,1.42,,2584.08,1792.38,28.60829,-80.61811,,,,,,,,,,,,74.27,478.06,
10.08,475.24,0.56,6.54,4.58,,0.16,50.95,,-63.1,0,1.42,,2955.85,2090.04,28.60827,-80.62115,,,,,,,,,,,,70.94,475.45,
11.1,473.98,0.68,6.36,4.58,,0.15,50.17,,-63.89,0,1.42,,3329.56,2397.43,28.60825,-80.6243,,,,,,,,,,,,67.71,474.06,
12.12,473.87,0.78,6.4,4.58,,0.15,49.39,,-64.29,0,1.43,,3698.52,2709.43,28.60823,-80.6275,,,,,,,,,,,,64.65,473.83,
13.12,474.78,0.87,6.61,4.58,,0.15,48.6,,-64.49,0,1.43,,4056.35,3020.49,28.60822,-80.63069,,,,,,,,,,,,61.79,474.64,
14.14,476.65,0.96,6.93,4.57,,0.15,47.8,,-64.6,0,1.44,,4417.95,3343.74,28.6082,-80.634,,,,,,,,,,,,59.01,476.41,
15.14,479.34,1.03,7.31,4.57,,0.15,47,,-64.66,0,1.46,,4769.67,3667.13,28.60818,-80.63731,,,,,,,,,,,,56.4,479,
16.14,482.79,1.1,7.73,4.57,,0.14,46.19,,-64.69,0,1.47,,5119.05,3997.52,28.60815,-80.64069,,,,,,,,,,,,53.91,482.38,
17.14,486.96,1.16,8.17,4.57,,0.14,45.38,,-64.71,0,1.49,,5466.45,4335.47,28.60813,-80.64416,,,,,,,,,,,,51.52,486.47,
18.16,491.88,1.21,8.61,4.57,,0.14,44.54,,-64.71,0,1.51,,5819.1,4688.48,28.60811,-80.64777,,,,,,,,,,,,49.19,491.32,
19.18,497.42,1.26,9.05,4.56,,0.14,43.71,,-64.71,0,1.54,,6170.28,5050.4,28.60809,-80.65148,,,,,,,,,,,,46.95,496.8,
20.18,503.41,1.31,9.46,4.56,,0.14,42.89,,-64.71,0,1.56,,6513.37,5414.34,28.60807,-80.65521,,,,,,,,,,,,44.85,502.72,
21.18,509.89,1.35,9.85,4.56,,0.13,42.07,,-64.71,0,1.59,,6855.41,5787.74,28.60804,-80.65903,,,,,,,,,,,,42.83,509.15,
22.2,516.98,1.38,10.23,4.56,,0.13,41.23,,-64.7,0,1.62,,7203.34,6178.76,28.60802,-80.66304,,,,,,,,,,,,40.85,516.19,
23.22,524.51,1.41,10.6,4.56,,0.13,40.39,,-64.7,0,1.65,,7550.4,6580.44,28.60799,-80.66715,,,,,,,,,,,,38.95,523.68,
24.22,532.31,1.44,10.95,4.55,,0.13,39.57,,-64.69,0,1.68,,7889.85,6984.96,28.60796,-80.6713,,,,,,,,,,,,37.16,531.43,
25.24,540.67,1.47,11.31,4.55,,0.13,38.74,,-64.68,0,1.72,,8235.31,7408.87,28.60794,-80.67564,,,,,,,,,,,,35.41,539.75,
26.24,549.27,1.5,11.65,4.55,,0.12,37.93,,-64.68,0,1.75,,8573.27,7835.9,28.60791,-80.68001,,,,,,,,,,,,33.77,548.3,
27.24,558.25,1.53,12.01,4.55,,0.12,37.12,,-64.67,0,1.79,,8910.51,8274.59,28.60788,-80.68451,,,,,,,,,,,,32.19,557.25,
28.24,567.64,1.56,12.37,4.55,,0.12,36.32,,-64.66,0,1.83,,9247.04,8725.3,28.60785,-80.68912,,,,,,,,,,,,30.67,566.59,
29.24,577.44,1.59,12.74,4.54,,0.12,35.53,,-64.66,0,1.87,,9582.87,9188.39,28.60782,-80.69387,,,,,,,,,,,,29.22,576.34,
30.24,587.68,1.63,13.14,4.54,,0.12,34.73,,-64.65,0,1.91,,9918,9664.24,28.60779,-80.69874,,,,,,,,,,,,27.83,586.53,
31.26,598.61,1.67,13.58,4.54,,0.11,33.94,,-64.64,0,1.95,,10259.15,10163.17,28.60775,-80.70385,,,,,,,,,,,,26.47,597.4,
32.3,610.3,1.71,14.07,4.54,,0.11,33.13,,-64.62,0,2,,10606.31,10686.47,28.60772,-80.70921,,,,,,,,,,,,25.14,609.04,
33.3,622.12,1.76,14.58,4.54,,0.11,32.36,,-64.61,0,2.05,,10939.51,11204.03,28.60769,-80.71451,,,,,,,,,,,,23.92,620.8,
34.32,634.77,1.81,15.11,4.54,,0.11,31.58,,-64.6,0,2.1,,11278.83,11747,28.60765,-80.72008,,,,,,,,,,,,22.73,633.42,
35.32,647.76,1.85,15.64,4.53,,0.11,30.83,,-64.59,0,2.15,,11611.02,12294.63,28.60761,-80.72569,,,,,,,,,,,,21.61,646.44,
36.32,661.34,1.9,16.17,4.53,,0.1,30.09,,-64.57,0,2.21,,11942.79,12857.93,28.60757,-80.73146,,,,,,,,,,,,20.54,660.17,
37.32,675.53,1.95,16.72,4.53,,0.1,29.36,,-64.56,0,2.26,,12274.16,13437.44,28.60753,-80.73739,,,,,,,,,,,,19.52,674.66,
38.32,690.32,2.01,17.28,4.53,,0.1,28.64,,-64.55,0,2.32,,12605.18,14033.71,28.60749,-80.7435,,,,,,,,,,,,18.55,689.99,
39.34,706.05,2.06,17.87,4.53,,0.1,27.92,,-64.53,0,2.38,,12942.5,14659.76,28.60745,-80.74991,,,,,,,,,,,,17.6,706.59,
40.34,722.11,2.11,18.45,4.53,,0.1,27.22,,-64.52,0,2.45,,13272.92,15291.61,28.60741,-80.75639,,,,,,,,,,,,16.71,723.91,
41.34,738.82,2.17,19.06,4.53,,0.09,26.54,,-64.5,0,2.51,,13603.07,15941.96,28.60736,-80.76305,,,,,,,,,,,,15.86,742.39,
42.34,756.2,2.23,19.68,4.53,,0.09,25.86,,-64.49,0,2.58,,13933,16611.41,28.60732,-80.7699,,,,,,,,,,,,15.05,762.17,
43.34,774.26,2.29,20.31,4.53,,0.09,25.2,,-64.47,0,2.65,,14262.71,17300.57,28.60727,-80.77696,,,,,,,,,,,,14.28,783.43,
44.36,793.4,2.35,20.99,4.53,,0.09,24.54,,-64.46,0,2.72,,14598.83,18024.49,28.60722,-80.78438,,,,,,,,,,,,13.53,806.81,
45.36,812.89,2.41,21.66,4.53,,0.09,23.9,,-64.44,0,2.8,,14928.2,18755.44,28.60717,-80.79187,,,,,,,,,,,,12.83,831.61,
46.36,833.13,2.48,22.37,4.53,,0.08,23.27,,-64.43,0,2.87,,15257.43,19508.1,28.60711,-80.79958,,,,,,,,,,,,12.16,858.48,
47.36,854.14,2.55,23.1,4.53,,0.08,22.66,,-64.41,0,2.95,,15586.55,20283.16,28.60706,-80.80752,,,,,,,,,,,,11.53,887.62,
48.36,875.95,2.63,23.87,4.52,,0.08,22.06,,-64.4,0,3.03,,15915.58,21081.37,28.607,-80.81569,,,,,,,,,,,,10.93,919.26,
49.36,898.62,2.7,24.68,4.52,,0.08,21.48,,-64.38,0,3.12,,16244.57,21903.5,28.60694,-80.82411,,,,,,,,,,,,10.36,953.68,
50.38,922.64,2.79,25.54,4.52,,0.08,20.89,,-64.37,0,3.2,,16580.12,22767.55,28.60688,-80.83296,,,,,,,,,,,,9.8,991.95,
51.38,899.65,2.9,33.15,0,,0.08,20.32,,-64.35,0,3.14,,16901.97,23621.54,28.60682,-80.84171,,,,,,,,,,,,9.3,965,
52.4,869.33,2.6,30.3,0,,0.08,19.71,,-64.33,0,3.03,,17210.51,24466.47,28.60676,-80.85037,,,,,,,,,,,,8.84,918.39,
53.4,842.27,2.36,27.93,0,,0.08,19.1,,-64.31,0,2.94,,17494.59,25271.05,28.6067,-80.85861,,,,,,,,,,,,8.44,879.26,
54.4,817.46,2.15,25.9,0,,0.08,18.46,,-64.29,0,2.85,,17761.48,26054.21,28.60664,-80.86663,,,,,,,,,,,,8.08,845.33,
55.42,794.19,1.96,24.13,0,,0.08,17.78,,-64.27,0,2.77,,18016.89,26832.85,28.60659,-80.87461,,,,,,,,,,,,7.75,815.03,
56.44,772.71,1.8,22.6,0,,0.08,17.09,,-64.25,0,2.69,,18256.13,27592.78,28.60653,-80.88239,,,,,,,,,,,,7.45,788.26,
57.46,752.8,1.66,21.27,0,,0.08,16.37,,-64.23,0,2.62,,18479.89,28335.43,28.60648,-80.89,,,,,,,,,,,,7.18,764.39,
58.48,734.28,1.54,20.11,0,,0.08,15.63,,-64.21,0,2.55,,18688.78,29062.08,28.60642,-80.89744,,,,,,,,,,,,6.94,742.92,
59.5,717.01,1.43,19.1,0,,0.08,14.87,,-64.19,0,2.49,,18883.34,29773.82,28.60637,-80.90473,,,,,,,,,,,,6.73,723.45,
60.5,701.15,1.34,18.23,0,,0.08,14.11,,-64.17,0,2.43,,19060.61,30458.09,28.60632,-80.91174,,,,,,,,,,,,6.54,706.01,
61.5,686.25,1.26,17.45,0,,0.08,13.33,,-64.15,0,2.38,,19224.96,31129.78,28.60627,-80.91862,,,,,,,,,,,,6.36,689.95,
62.52,671.96,1.19,16.75,0,,0.08,12.51,,-64.13,0,2.32,,19379.64,31802.71,28.60622,-80.92551,,,,,,,,,,,,6.21,674.8,
63.54,658.49,1.12,16.12,0,,0.08,11.67,,-64.11,0,2.27,,19521.58,32463.99,28.60617,-80.93229,,,,,,,,,,,,6.07,660.73,
64.54,646.02,1.06,15.57,0,,0.08,10.83,,-64.09,0,2.23,,19648.65,33101.6,28.60612,-80.93882,,,,,,,,,,,,5.94,647.84,
65.54,634.23,1.01,15.08,0,,0.08,9.97,,-64.07,0,2.19,,19764.03,33729.12,28.60607,-80.94525,,,,,,,,,,,,5.83,635.75,
66.56,622.83,0.96,14.63,0,,0.08,9.07,,-64.05,0,2.15,,19869.91,34359.27,28.60603,-80.9517,,,,,,,,,,,,5.73,624.15,
67.56,612.23,0.92,14.23,0,,0.08,8.18,,-64.03,0,2.11,,19962.37,34967.78,28.60598,-80.95794,,,,,,,,,,,,5.65,613.42,
68.58,601.97,0.88,13.86,0,,0.08,7.25,,-64.01,0,2.07,,20045.32,35579.37,28.60593,-80.9642,,,,,,,,,,,,5.57,603.07,
69.58,592.42,0.85,13.53,0,,0.08,6.32,,-64,0,2.04,,20115.68,36170.4,28.60589,-80.97025,,,,,,,,,,,,5.51,593.45,
70.58,583.32,0.82,13.23,0,,0.08,5.37,,-63.98,0,2.01,,20175.38,36753.25,28.60584,-80.97622,,,,,,,,,,,,5.46,584.3,
71.6,574.5,0.79,12.94,0,,0.08,4.39,,-63.96,0,1.98,,20225.45,37339.62,28.6058,-80.98223,,,,,,,,,,,,5.41,575.43,
72.6,566.28,0.76,12.68,0,,0.08,3.41,,-63.94,0,1.95,,20264.09,37906.77,28.60576,-80.98804,,,,,,,,,,,,5.38,567.16,
73.62,558.3,0.74,12.43,0,,0.08,2.4,,-63.92,0,1.92,,20292.99,38477.64,28.60571,-80.99389,,,,,,,,,,,,5.36,559.14,
74.62,550.88,0.72,12.2,0,,0.08,1.39,,-63.91,0,1.89,,20311.15,39030.06,28.60567,-80.99955,,,,,,,,,,,,5.34,551.68,
75.64,543.69,0.7,11.98,0,,0.08,0.35,,-63.89,0,1.87,,20319.46,39586.34,28.60563,-81.00524,,,,,,,,,,,,5.33,544.44,
76.66,536.87,0.68,11.78,0,,0.08,-0.71,,-63.87,0,1.84,,20317.56,40135.56,28.60559,-81.01087,,,,,,,,,,,,5.33,537.58,
77.68,530.4,0.66,11.59,0,,0.08,-1.78,,-63.86,0,1.82,,20305.6,40677.9,28.60555,-81.01643,,,,,,,,,,,,5.34,531.08,
78.68,524.39,0.65,11.42,0,,0.08,-2.84,,-63.84,0,1.8,,20284.21,41203.09,28.60551,-81.02181,,,,,,,,,,,,5.36,525.03,
79.7,518.57,0.64,11.25,0,,0.08,-3.93,,-63.82,0,1.78,,20252.66,41732.29,28.60546,-81.02723,,,,,,,,,,,,5.39,519.18,
80.72,513.06,0.63,11.09,0,,0.08,-5.03,,-63.81,0,1.76,,20211.4,42255.05,28.60542,-81.03258,,,,,,,,,,,,5.42,513.64,
81.72,507.94,0.62,10.95,0,,0.08,-6.12,,-63.79,0,1.75,,20161.63,42761.43,28.60539,-81.03777,,,,,,,,,,,,5.47,508.49,
82.72,503.08,0.61,10.81,0,,0.08,-7.22,,-63.78,0,1.73,,20102.75,43261.83,28.60535,-81.04289,,,,,,,,,,,,5.52,503.6,
83.74,498.39,0.6,10.68,0,,0.08,-8.35,,-63.76,0,1.71,,20033.4,43766.18,28.60531,-81.04806,,,,,,,,,,,,5.58,498.88,
84.74,494.02,0.6,10.56,0,,0.08,-9.47,,-63.75,0,1.7,,19956.41,44254.78,28.60527,-81.05306,,,,,,,,,,,,5.65,494.49,
85.76,489.8,0.59,10.44,0,,0.08,-10.61,,-63.73,0,1.69,,19868.82,44747.21,28.60523,-81.05811,,,,,,,,,,,,5.73,490.25,
86.76,485.88,0.59,10.32,0,,0.08,-11.73,,-63.72,0,1.67,,19774.16,45224.23,28.6052,-81.06299,,,,,,,,,,,,5.82,486.3,
87.76,482.16,0.59,10.22,0,,0.08,-12.86,,-63.7,0,1.66,,19670.93,45695.59,28.60516,-81.06782,,,,,,,,,,,,5.92,482.56,
88.78,478.55,0.59,10.11,0,,0.08,-14.02,,-63.69,0,1.65,,19556.9,46170.57,28.60512,-81.07269,,,,,,,,,,,,6.02,478.93,
89.78,475.18,0.59,10.01,0,,0.08,-15.15,,-63.67,0,1.64,,19436.66,46630.57,28.60509,-81.0774,,,,,,,,,,,,6.14,475.55,
90.78,471.98,0.6,9.91,0,,0.08,-16.29,,-63.66,0,1.63,,19308.19,47084.95,28.60505,-81.08205,,,,,,,,,,,,6.27,472.32,
91.8,468.86,0.6,9.81,0,,0.08,-17.45,,-63.64,0,1.62,,19168.77,47542.64,28.60502,-81.08674,,,,,,,,,,,,6.41,469.19,
92.8,465.94,0.61,9.71,0,,0.08,-18.59,,-63.63,0,1.61,,19024.02,47985.69,28.60498,-81.09128,,,,,,,,,,,,6.57,466.26,
93.8,463.14,0.61,9.62,0,,0.08,-19.73,,-63.61,0,1.6,,18871.4,48423.09,28.60495,-81.09576,,,,,,,,,,,,6.73,463.44,
94.8,460.45,0.62,9.53,0,,0.08,-20.87,,-63.6,0,1.6,,18711.06,48854.84,28.60492,-81.10018,,,,,,,,,,,,6.91,460.74,
95.8,457.85,0.63,9.44,0,,0.08,-22,,-63.59,0,1.59,,18543.12,49280.89,28.60488,-81.10455,,,,,,,,,,,,7.1,458.14,
96.8,455.34,0.64,9.34,0,,0.08,-23.14,,-63.57,0,1.58,,18367.74,49701.2,28.60485,-81.10885,,,,,,,,,,,,7.3,455.61,
97.8,452.89,0.65,9.25,0,,0.08,-24.27,,-63.56,0,1.57,,18185.07,50115.73,28.60482,-81.1131,,,,,,,,,,,,7.52,453.16,
98.8,450.5,0.66,9.16,0,,0.08,-25.39,,-63.55,0,1.57,,17995.26,50524.41,28.60479,-81.11729,,,,,,,,,,,,7.76,450.76,
99.8,448.16,0.68,9.07,0,,0.08,-26.51,,-63.53,0,1.56,,17798.5,50927.2,28.60475,-81.12141,,,,,,,,,,,,8.01,448.41,
100.8,445.84,0.69,8.99,0,,0.08,-27.63,,-63.52,0,1.55,,17594.95,51324.02,28.60472,-81.12548,,,,,,,,,,,,8.29,446.09,
101.8,443.54,0.71,8.9,0,,0.08,-28.74,,-63.51,0,1.54,,17384.79,51714.81,28.60469,-81.12948,,,,,,,,,,,,8.57,443.79,
102.82,441.19,0.73,8.81,0,,0.08,-29.87,,-63.5,0,1.54,,17163.82,52107.11,28.60466,-81.1335,,,,,,,,,,,,8.89,441.44,
103.82,438.88,0.74,8.72,0,,0.08,-30.97,,-63.48,0,1.53,,16940.92,52485.47,28.60463,-81.13737,,,,,,,,,,,,9.22,439.14,
104.82,436.56,0.76,8.63,0,,0.08,-32.06,,-63.47,0,1.52,,16712.01,52857.55,28.6046,-81.14118,,,,,,,,,,,,9.57,436.81,
105.82,434.2,0.78,8.55,0,,0.08,-33.14,,-63.46,0,1.51,,16477.32,53223.27,28.60458,-81.14493,,,,,,,,,,,,9.95,434.46,
106.82,431.8,0.8,8.47,0,,0.08,-34.22,,-63.45,0,1.5,,16237.07,53582.54,28.60455,-81.14861,,,,,,,,,,,,10.35,432.06,
107.82,429.34,0.82,8.38,0,,0.08,-35.29,,-63.44,0,1.49,,15991.49,53935.29,28.60452,-81.15222,,,,,,,,,,,,10.77,429.61,
108.82,426.83,0.84,8.3,0,,0.08,-36.36,,-63.43,0,1.48,,15740.82,54281.41,28.60449,-81.15577,,,,,,,,,,,,11.22,427.11,
109.82,424.24,0.87,8.23,0,,0.08,-37.41,,-63.42,0,1.47,,15485.32,54620.84,28.60446,-81.15925,,,,,,,,,,,,11.7,424.53,
110.82,421.57,0.89,8.15,0,,0.08,-38.46,,-63.41,0,1.46,,15225.23,54953.47,28.60444,-81.16265,,,,,,,,,,,,12.2,421.87,
111.82,418.81,0.91,8.08,0,,0.08,-39.5,,-63.4,0,1.45,,14960.83,55279.24,28.60441,-81.16599,,,,,,,,,,,,12.73,419.12,
112.82,415.96,0.94,8.01,0,,0.08,-40.53,,-63.39,0,1.43,,14692.37,55598.07,28.60439,-81.16926,,,,,,,,,,,,13.3,416.28,
113.84,412.94,0.96,7.94,0,,0.08,-41.57,,-63.38,0,1.42,,14414.66,55916.04,28.60436,-81.17251,,,,,,,,,,,,13.9,413.28,
114.84,409.87,0.99,7.88,0,,0.08,-42.58,,-63.37,0,1.41,,14138.88,56220.6,28.60434,-81.17563,,,,,,,,,,,,14.53,410.21,
115.84,406.66,1.01,7.83,0,,0.08,-43.59,,-63.35,0,1.39,,13859.9,56517.99,28.60431,-81.17868,,,,,,,,,,,,15.19,407.02,
116.84,403.27,1.05,7.81,0,,0.08,-44.59,,-63.34,0,1.38,,13578.05,56808.12,28.60429,-81.18165,,,,,,,,,,,,15.89,403.65,
117.86,399.54,1.09,7.84,0,,0.08,-45.6,,-63.33,0,1.36,,13287.99,57096.46,28.60427,-81.1846,,,,,,,,,,,,16.63,399.96,
118.86,395.53,1.14,7.93,0,,0.08,-46.58,,-63.33,0,1.34,,13001.52,57371.5,28.60425,-81.18742,,,,,,,,,,,,17.4,395.99,
119.88,390.97,1.2,8.09,0,,0.08,-47.57,,-63.32,0,1.32,,12707.72,57644.03,28.60422,-81.19021,,,,,,,,,,,,18.21,391.49,
120.88,385.95,1.27,8.34,0,,0.08,-48.54,,-63.31,0,1.3,,12418.71,57903.07,28.6042,-81.19287,,,,,,,,,,,,19.05,386.53,
121.88,380.29,1.35,8.68,0,,0.08,-49.5,,-63.3,0,1.28,,12129.39,58153.73,28.60418,-81.19543,,,,,,,,,,,,19.92,380.95,
122.9,373.79,1.44,9.11,0,,0.08,-50.48,,-63.29,0,1.25,,11834.73,58400.4,28.60416,-81.19796,,,,,,,,,,,,20.84,374.52,
123.9,366.67,1.52,9.57,0,,0.08,-51.44,,-63.28,0,1.22,,11547.11,58633.06,28.60414,-81.20034,,,,,,,,,,,,21.77,367.48,
124.9,358.86,1.6,10.01,0,,0.08,-52.4,,-63.27,0,1.19,,11261.51,58856.29,28.60412,-81.20263,,,,,,,,,,,,22.74,359.75,
125.9,350.52,1.66,10.31,0,,0.08,-53.36,,-63.26,0,1.16,,10978.67,59069.86,28.60411,-81.20482,,,,,,,,,,,,23.73,351.45,
126.9,341.9,1.69,10.38,0,,0.08,-54.32,,-63.25,0,1.13,,10699.16,59273.67,28.60409,-81.2069,,,,,,,,,,,,24.74,342.85,
127.9,333.38,1.68,10.14,0,,0.08,-55.28,,-63.24,0,1.1,,10423.29,59467.82,28.60407,-81.20889,,,,,,,,,,,,25.78,334.3,
128.92,325.34,1.59,9.32,0,,0.08,-56.26,,-63.23,0,1.06,,10145.62,59656.29,28.60406,-81.21082,,,,,,,,,,,,26.85,326.15,
129.92,318.8,1.46,8.11,0,,0.08,-57.22,,-63.22,0,1.04,,9876.4,59832.44,28.60404,-81.21263,,,,,,,,,,,,27.94,319.45,
130.92,313.69,1.32,7.01,0,,0.08,-58.18,,-63.21,0,1.02,,9609.17,60000.98,28.60403,-81.21435,,,,,,,,,,,,29.05,314.19,
131.92,309.83,1.21,6.18,0,,0.08,-59.12,,-63.2,0,1,,9342.99,60162.78,28.60401,-81.21601,,,,,,,,,,,,30.19,310.2,
132.92,306.95,1.13,5.59,0,,0.08,-60.05,,-63.19,0,0.99,,9077.08,60318.55,28.604,-81.21761,,,,,,,,,,,,31.36,307.22,
133.92,304.8,1.07,5.18,0,,0.08,-60.96,,-63.18,0,0.98,,8810.87,60468.81,28.60399,-81.21915,,,,,,,,,,,,32.58,305.01,
134.92,303.21,1.03,4.89,0,,0.08,-61.84,,-63.17,0,0.97,,8543.96,60614.02,28.60398,-81.22063,,,,,,,,,,,,33.84,303.36,
135.94,302,0.99,4.66,0,,0.08,-62.73,,-63.16,0,0.96,,8270.7,60757.24,28.60396,-81.2221,,,,,,,,,,,,35.16,302.11,
136.94,301.11,0.97,4.48,0,,0.08,-63.58,,-63.15,0,0.95,,8001.62,60893.14,28.60395,-81.22349,,,,,,,,,,,,36.51,301.2,
137.94,300.44,0.96,4.32,0,,0.08,-64.4,,-63.14,0,0.95,,7731.28,61024.77,28.60394,-81.22484,,,,,,,,,,,,37.91,300.5,
138.94,299.91,0.95,4.18,0,,0.08,-65.2,,-63.13,0,0.94,,7459.64,61152.31,28.60393,-81.22615,,,,,,,,,,,,39.35,299.96,
139.96,299.47,0.95,4.05,0,,0.08,-66,,-63.12,0,0.94,,7181.22,61278.33,28.60392,-81.22744,,,,,,,,,,,,40.88,299.52,
140.98,299.09,0.95,3.93,0,,0.08,-66.77,,-63.11,0,0.93,,6901.48,61400.37,28.6039,-81.22869,,,,,,,,,,,,42.47,299.13,
142,298.74,0.96,3.81,0,,0.08,-67.53,,-63.1,0,0.93,,6620.49,61518.55,28.60389,-81.2299,,,,,,,,,,,,44.11,298.77,
143.02,298.39,0.96,3.69,0,,0.08,-68.26,,-63.09,0,0.93,,6338.32,61632.96,28.60388,-81.23107,,,,,,,,,,,,45.81,298.43,
144.02,298.04,0.97,3.58,0,,0.08,-68.95,,-63.07,0,0.92,,6060.63,61741.57,28.60387,-81.23218,,,,,,,,,,,,47.54,298.08,
145.02,297.66,0.97,3.48,0,,0.08,-69.62,,-63.06,0,0.92,,5782.01,61846.74,28.60386,-81.23326,,,,,,,,,,,,49.33,297.7,
146.02,297.24,0.98,3.38,0,,0.08,-70.28,,-63.05,0,0.91,,5502.55,61948.54,28.60385,-81.2343,,,,,,,,,,,,51.17,297.29,
147.02,296.76,0.99,3.29,0,,0.08,-70.91,,-63.03,0,0.91,,5222.39,62047.05,28.60384,-81.23531,,,,,,,,,,,,53.08,296.82,
148.02,296.2,1,3.21,0,,0.08,-71.53,,-63.02,0,0.9,,4941.66,62142.33,28.60383,-81.23629,,,,,,,,,,,,55.05,296.27,
149.04,295.53,1.02,3.13,0,,0.08,-72.14,,-63,0,0.9,,4654.88,62236.24,28.60382,-81.23725,,,,,,,,,,,,57.12,295.61,
150.04,294.75,1.03,3.07,0,,0.08,-72.73,,-62.99,0,0.89,,4373.48,62325.18,28.60381,-81.23816,,,,,,,,,,,,59.22,294.84,
151.04,293.86,1.05,3.01,0,,0.08,-73.29,,-62.97,0,0.89,,4092,62411.05,28.6038,-81.23904,,,,,,,,,,,,61.38,293.97,
152.06,292.85,1.06,2.96,0,,0.08,-73.85,,-62.96,0,0.88,,3804.97,62495.54,28.60379,-81.23991,,,,,,,,,,,,63.65,292.96,
153.06,291.77,1.07,2.91,0,,0.08,-74.39,,-62.94,0,0.88,,3523.8,62575.4,28.60379,-81.24072,,,,,,,,,,,,65.95,291.89,
154.06,290.6,1.08,2.86,0,,0.08,-74.91,,-62.92,0,0.87,,3242.99,62652.38,28.60378,-81.24151,,,,,,,,,,,,68.31,290.73,
155.06,289.36,1.09,2.82,0,,0.08,-75.41,,-62.9,0,0.87,,2962.68,62726.54,28.60377,-81.24227,,,,,,,,,,,,70.73,289.5,
156.06,288.05,1.1,2.77,0,,0.08,-75.91,,-62.88,0,0.86,,2682.96,62797.95,28.60376,-81.243,,,,,,,,,,,,73.22,288.19,
157.06,286.68,1.11,2.74,0,,0.08,-76.38,,-62.86,0,0.85,,2403.96,62866.67,28.60375,-81.24371,,,,,,,,,,,,75.78,286.83,
158.06,285.25,1.12,2.7,0,,0.08,-76.85,,-62.84,0,0.85,,2125.76,62932.79,28.60374,-81.24438,,,,,,,,,,,,78.41,285.41,
159.08,283.75,1.12,2.66,0,,0.08,-77.31,,-62.82,0,0.84,,1842.92,62997.6,28.60374,-81.24505,,,,,,,,,,,,81.17,284.21,
160.08,282.25,1.13,2.61,0,,0.08,-77.75,,-62.79,0,0.83,,1566.6,63058.65,28.60373,-81.24567,,,,,,,,,,,,83.94,285.75,
161.1,280.7,1.13,2.56,0,,0.08,-78.18,,-62.77,0,0.83,,1285.81,63118.44,28.60372,-81.24629,,,,,,,,,,,,86.84,287.39,
162.1,279.18,1.13,2.51,0,,0.08,-78.6,,-62.74,0,0.82,,1011.6,63174.72,28.60371,-81.24686,,,,,,,,,,,,89.75,289.02,
163.12,277.62,1.14,2.45,0,,0.08,-79.01,,-62.71,0,0.81,,733.05,63229.81,28.6037,-81.24743,,,,,,,,,,,,92.79,290.67,
164.14,276.06,1.14,2.4,0,,0.08,-79.41,,-62.68,0,0.81,,455.67,63282.64,28.6037,-81.24797,,,,,,,,,,,,95.91,292.27,
165.14,274.52,1.14,2.36,0,,0.08,-79.78,,-62.66,0,0.8,,184.92,63332.3,28.60369,-81.24848,,,,,,,,,,,,99.05,293.75,
